,upload_date,house_direction,bedroom,toilet,legits,furniture,floors,facade,entrance,city,district,ward,street,area,price,latitude,longitude
7,28/11/2022,nan,4.0,3.0,Sổ đỏ/ Sổ hồng.,Đầy đủ.,4 tầng,4.1,8 m,Hà Nội,Nam Từ Liêm,Phường Trung Văn,đường Trung Văn,55.0,4800.0,20.9923163,105.7798078
8,29/11/2022,nan,4.0,4.0,Sổ đỏ/ Sổ hồng,Nội thất đầy đủ.,5 tầng,4.0,3 m,Hà Nội,Nam Từ Liêm,Phường Mỹ Đình 2,Đường Nhân Mỹ,35.0,4000.0,,
1,29/11/2022,nan,6.0,6.0,Đã có sổ đỏ,Đầy đủ,6 tầng,5.1,30 m,Hà Nội,Đống Đa,Phường Ô Chợ Dừa,Phố Xã Đàn,80.0,28000.0,,
5,29/11/2022,nan,3.0,4.0,Sổ đỏ/ Sổ hồng,Nội thất đầy đủ.,5 tầng,4.0,2.5 m,Hà Nội,Nam Từ Liêm,Phường Phú Đô,Đường Lê Quang Đạo,35.0,4000.0,21.0089131,105.773176
3,26/11/2022,nan,4.0,3.0,Sổ đỏ/ Sổ hồng,Đầy đủ.,4 tầng,5.0,nan,Hà Nội,Hà Đông,Phường Quang Trung,Đường Quang Trung,48.0,6200.0,20.9643167,105.7675308
6,28/11/2022,nan,4.0,3.0,Sổ đỏ/ Sổ hồng,Đầy đủ.,4 tầng,4.5,nan,Hà Nội,Thanh Xuân,Phường Nhân Chính,Phố Quan Nhân,51.0,5150.0,21.0087166,105.8134114
2,26/11/2022,nan,6.0,4.0,Sổ đỏ,Đầy đủ.,5 tầng,4.6,nan,Hà Nội,Hà Đông,Phường Quang Trung,Đường Quang Trung,78.0,6100.0,20.9643167,105.7675308
9,29/11/2022,nan,13.0,26.0,nan,nan,6 tầng,nan,nan,Hà Nội,Tây Hồ,Phường Yên Phụ,đường Nghi Tàm,150.0,25500.0,21.0525936,105.8381298
0,28/11/2022,nan,5.0,nan,Sổ đỏ/ Sổ hồng.,Cơ bản.,5 tầng,nan,nan,Hà Nội,Long Biên,Phường Bồ Đề,Đường Bồ Đề,52.0,6750.0,21.055968749999998,105.88449242832769
10,29/11/2022,E,nan,nan,Sổ đỏ/ Sổ hồng,nan,5 tầng,9.0,nan,Hà Nội,Cầu Giấy,Phường Nghĩa Đô,Đường Nguyễn Văn Huyên,180.0,88000.0,21.0429957,105.7975313
11,23/11/2022,nan,1.0,1.0,Sổ đỏ/ Sổ hồng,nan,2 tầng,3.7,5 m,Hà Nội,Hai Bà Trưng,Phường Đồng Tâm,Phố Lê Thanh Nghị,50.0,11800.0,21.00187,105.8416917
12,29/11/2022,E,5.0,5.0,Sổ đỏ/ Sổ hồng,Cao cấp,7 tầng,5.0,4 m,Hà Nội,Ba Đình,Phường Ngọc Hà,Đường Hoàng Hoa Thám,50.0,10400.0,21.0408333,105.8244424
13,29/11/2022,nan,3.0,3.0,Sổ đỏ.,Cao cấp.,5 tầng,3.5,4 m,Hà Nội,Cầu Giấy,Phường Quan Hoa,Đường Nguyễn Khánh Toàn,36.0,4000.0,21.0369807,105.8017796
14,29/11/2022,nan,6.0,5.0,Sổ đỏ,Nội thất ngoại nhập.,4 tầng,10.0,15 m,Hà Nội,Hoàng Mai,Phường Hoàng Liệt,Đường Bằng A,200.0,42000.0,,
4,28/11/2022,nan,4.0,3.0,Sổ đỏ,Đầy đủ.,4 tầng,4.0,nan,Hà Nội,Hà Đông,Phường Văn Quán,Đường 19/5,43.0,3800.0,20.9763813,105.7902875
16,29/11/2022,nan,3.0,4.0,Sổ đỏ.,nan,3 tầng,8.6,25 m,Hà Nội,Cầu Giấy,Phường Quan Hoa,Đường Nguyễn Khánh Toàn,225.0,70000.0,21.0369807,105.8017796
15,29/11/2022,nan,4.0,4.0,Sổ đỏ/ Sổ hồng,nan,5 tầng,5.5,15 m,Hà Nội,Tây Hồ,Phường Xuân La,Đường Xuân La,85.0,22000.0,21.0670509,105.8040892
17,28/11/2022,nan,nan,nan,Sổ đỏ/ Sổ hồng.,Toàn bộ nội thất.,6 tầng,nan,nan,Hà Nội,Hoàng Mai,Phường Lĩnh Nam,Đường Nam Dư,33.0,3150.0,,
18,11/10/2022,nan,5.0,4.0,Sổ đỏ/ Sổ hồng,Nội thất chất lượng cao,9 tầng,8.0,11 m,Hà Nội,Cầu Giấy,Phường Trung Hòa,Đường Nguyễn Khang,161.0,52900.0,21.0151327,105.8043705
19,11/10/2022,nan,nan,nan,Đang chờ sổ,Bàn giao Chủ đầu tư,1 tầng,nan,nan,Hà Nội.,Nam Từ Liêm,Phường Tây Mỗ,nan,73.3,12000.0,21.0096762,105.7445572
21,29/11/2022,nan,7.0,4.0,Sổ đỏ/ Sổ hồng.,Đầy đủ,5 tầng,3.8,4 m,Hà Nội,Thanh Trì,Xã Thanh Liệt,Đường Kim Giang,58.0,8500.0,,
20,29/11/2022,nan,5.0,nan,Sổ đỏ/ Sổ hồng,Không nội thất.,5 tầng,6.0,nan,Hà Nội,Long Biên,Phường Ngọc Lâm,Đường Nguyễn Văn Cừ,93.0,10500.0,21.0441976,105.8727096
22,29/11/2022,nan,nan,nan,nan,nan,4 tầng,5.0,nan,Hà Nội,Hoài Đức,Xã Vân Canh,nan,100.0,12500.0,21.029480149999998,105.72760178114785
23,22/11/2022,nan,3.0,4.0,Sổ đỏ/ Sổ hồng.,Đầy đủ.,5 tầng,4.0,3 m,Hà Nội,Long Biên,Phường Phúc Đồng,Đường Nguyễn Văn Linh,35.0,2900.0,21.0342076,105.9048949
24,29/11/2022,nan,4.0,4.0,Sổ đỏ/ Sổ hồng,nan,4 tầng,4.0,7 m,Hà Nội,Đống Đa,Phường Trung Liệt,Phố Thái Hà,40.0,7400.0,21.0106446,105.8223202
25,29/11/2022,nan,nan,nan,nan,nan,5 tầng,5.2,nan,Hà Nội,Cầu Giấy,Phường Quan Hoa,Đường Quan Hoa,54.0,5250.0,21.0361732,105.80152004140254
27,29/11/2022,nan,3.0,4.0,Sổ đỏ/ Sổ hồng,nan,3 tầng,nan,20 m,Hà Nội,Thanh Xuân,Phường Phương Liệt,Đường Trường Chinh,170.0,40000.0,20.9977094,105.840909
26,29/11/2022,nan,nan,nan,nan,nan,5 tầng,4.8,nan,Hà Nội,Đống Đa,Phường Láng Thượng,Phố Chùa Láng,50.0,5200.0,21.0230652,105.8080838
28,29/11/2022,nan,nan,nan,nan,nan,5 tầng,6.0,nan,Hà Nội,Đống Đa,Phường Láng Thượng,Phố Pháo Đài Láng,52.0,5500.0,21.0182235,105.8039304
30,29/11/2022,nan,nan,nan,nan,Nội thất 5 sao.,6 tầng,5.5,nan,Hà Nội,Long Biên,Phường Long Biên,Đường Hoàng Như Tiếp,72.0,9200.0,,
29,29/11/2022,E,3.0,4.0,Sổ đỏ/ Sổ hồng,nan,4 tầng,4.0,nan,Hà Nội,Ba Đình,Phường Vĩnh Phúc,Đường Vĩnh Phúc,22.0,2900.0,21.0460074,105.8110403
32,29/11/2022,nan,6.0,6.0,nan,nan,5 tầng,5.0,5 m,Hà Nội,Long Biên,Phường Thạch Bàn,Đường Tư Đình,50.0,4650.0,,
31,29/11/2022,W,nan,nan,Sổ đỏ/ Sổ hồng,nan,5 tầng,5.6,40 m,Hà Nội,Tây Hồ,Phường Quảng An,Đường Xuân Diệu,69.0,33000.0,21.0679874,105.8260323
33,29/11/2022,nan,nan,nan,nan,nan,6 tầng,nan,nan,Hà Nội,Đống Đa,Phường Phương Liên,Đường Phạm Ngọc Thạch,55.0,11000.0,,
35,29/11/2022,nan,5.0,4.0,Sổ đỏ,nan,5 tầng,5.8,nan,Hà Nội,Thanh Xuân,Phường Khương Trung,Đường Lê Trọng Tấn,116.0,15200.0,,
34,23/11/2022,nan,nan,nan,nan,nan,7 tầng,nan,nan,Hà Nội,Đống Đa,Phường Láng Hạ,Phố Láng Hạ,65.0,17500.0,21.0122912,105.8122233
36,23/11/2022,nan,nan,nan,nan,nan,5 tầng,4.1,nan,Hà Nội,Hoàn Kiếm,Phường Hàng Bài,Đường Lý Thái Tổ,32.0,34000.0,,
37,29/11/2022,nan,2.0,2.0,Sổ đỏ/ Sổ hồng,nan,3 tầng,3.4,nan,Hà Nội,Đống Đa,Phường Trung Phụng,Phố Khâm Thiên,37.0,4100.0,21.0186692,105.8378027
38,29/11/2022,nan,6.0,4.0,Sổ đỏ/ Sổ hồng.,nan,5 tầng,4.0,nan,Hà Nội,Hoàng Mai,Phường Hoàng Văn Thụ,Đường Hoàng Mai,40.0,4850.0,20.9876506,105.857676
40,29/11/2022,N,3.0,3.0,Sổ đỏ/ Sổ hồng,nan,3 tầng,3.8,3.5 m,Hà Nội,Đống Đa,Phường Cát Linh,Đường Cát Linh,43.0,5600.0,21.02392085,105.82280000684547
39,29/11/2022,E,4.0,6.0,Sổ đỏ/ Sổ hồng,Đầy đủ,6 tầng,5.0,5 m,Hà Nội,Đống Đa,Phường Láng Thượng,Đường Láng,34.0,9000.0,21.0219094,105.800841
42,29/11/2022,nan,4.0,4.0,Đã có sổ,nan,3 tầng,6.0,8 m,Hà Nội,Cầu Giấy,Phường Nghĩa Tân,Đường Hoàng Quốc Việt,80.0,12000.0,21.0460863,105.7926597
41,29/11/2022,nan,4.0,5.0,Sổ đỏ/ Sổ hồng.,nan,4 tầng,6.9,20 m,Hà Nội.,Nam Từ Liêm,Phường Mỹ Đình 1,Đường Đỗ Đình Thiện,155.0,38000.0,,
43,28/11/2022,E,nan,nan,nan,nan,5 tầng,4.5,nan,Hà Nội,Hà Đông,Phường Phúc La,Đường Nguyễn Khuyến,77.0,13500.0,,
44,28/11/2022,nan,6.0,nan,nan,nan,5 tầng,nan,13 m,Hà Nội,Hà Đông,Phường Phúc La,Đường Văn Quán,86.0,13500.0,20.9735548,105.7855253
45,25/11/2022,nan,nan,nan,nan,nan,5 tầng,nan,nan,Hà Nội,Thanh Xuân,Phường Nhân Chính,Phố Ngụy Như Kon Tum,105.0,23200.0,21.0018072,105.8046864
46,26/11/2022,nan,nan,nan,nan,nan,5 tầng,7.5,15 m,Hà Nội,Hà Đông,Phường Phúc La,Đường Văn Quán,95.0,19000.0,20.9735548,105.7855253
47,25/11/2022,nan,nan,nan,Sổ đỏ chính chủ.,nan,8 tầng,nan,nan,Hà Nội,Thanh Xuân,Phường Nhân Chính,Phố Ngụy Như Kon Tum,96.0,34000.0,21.0018072,105.8046864
48,26/11/2022,nan,nan,nan,nan,nan,5 tầng,nan,nan,Hà Nội,Hà Đông,Phường Phúc La,Đường Chiến Thắng,95.5,17000.0,,
49,29/11/2022,nan,4.0,nan,nan,Cơ bản.,4 tầng,5.0,3 m,Hà Nội.,Nam Từ Liêm,Phường Xuân Phương,Đường Xuân Phương,45.0,4250.0,21.0283009,105.7406946
50,25/11/2022,nan,4.0,nan,nan,nan,5 tầng,4.6,nan,Hà Nội,Hà Đông,Phường Phúc La,Đường Nguyễn Khuyến,80.8,14000.0,,
51,29/11/2022,nan,4.0,5.0,Sổ đỏ/ Sổ hồng,Đầy đủ,5 tầng,5.0,7 m,Hà Nội,Long Biên,Phường Long Biên,Đường Bát Khối,79.0,6450.0,21.0056952,105.9080451
52,29/11/2022,nan,nan,nan,Sổ đỏ,nan,5 tầng,5.0,nan,Hà Nội,Hà Đông,Phường Phúc La,Đường Nguyễn Khuyến,90.0,14500.0,,
53,29/11/2022,nan,nan,nan,nan,nan,5 tầng,nan,nan,Hà Nội,Hà Đông,Phường Phúc La,Đường Nguyễn Khuyến,108.0,25000.0,,
54,29/11/2022,nan,3.0,nan,Sổ đỏ/ Sổ hồng,Nội thất đầy đủ,5 tầng,4.5,2 m,Hà Nội,Ba Đình,Phường Đội Cấn,Đường Đội Cấn,28.0,3480.0,21.0358189,105.8348752
55,29/11/2022,E,90.0,90.0,Sổ đỏ/ Sổ hồng,Nội thất nhập khẩu cao cấp,13 tầng,8.1,30 m,Hà Nội,Hoàn Kiếm,Phường Hàng Bông,Phố Hàng Bông,325.0,500000.0,21.0283222,105.8437768
56,29/11/2022,nan,10.0,10.0,Sổ đỏ/ Sổ hồng,Cơ bản,6 tầng,4.4,nan,Hà Nội,Cầu Giấy,Phường Dịch Vọng,Đường Dịch Vọng,56.0,8200.0,21.03882335,105.78192046095293
58,29/11/2022,nan,nan,nan,Sổ đỏ,nan,6 tầng,nan,nan,Hà Nội,Long Biên,Phường Bồ Đề,Đường Lâm Hạ,68.0,12900.0,21.0343807,105.8746544
57,29/11/2022,nan,4.0,5.0,Sổ đỏ/ Sổ hồng,nan,5 tầng,3.5,nan,Hà Nội,Đống Đa,Phường Láng Thượng,Đường Láng,40.0,6490.0,21.0219094,105.800841
59,29/11/2022,nan,nan,nan,Sổ đỏ.,nan,6 tầng,nan,nan,Hà Nội,Long Biên,Phường Long Biên,Đường Cổ Linh,65.0,11500.0,21.0230047,105.9053622
60,29/11/2022,nan,nan,nan,Sổ đỏ.,Nội thất xịn sò.,7 tầng,5.0,nan,Hà Nội,Long Biên,Phường Bồ Đề,Đường Bồ Đề,65.0,10700.0,21.055968749999998,105.88449242832769
61,29/11/2022,nan,nan,nan,Sổ đỏ.,Nội thất hiện đại.,5 tầng,5.5,5 m,Hà Nội,Long Biên,Phường Ngọc Thụy,Đường Ngọc Thụy,83.0,11400.0,21.0570056,105.8656276
62,29/11/2022,nan,4.0,3.0,Sổ đỏ/ Sổ hồng,Cao cấp.,4 tầng,4.0,5 m,Hà Nội,Cầu Giấy,Phường Quan Hoa,Đường Nguyễn Khánh Toàn,76.0,14700.0,21.0369807,105.8017796
63,29/11/2022,nan,nan,nan,nan,nan,5 tầng,4.2,nan,Hà Nội,Hoàn Kiếm,Phường Phan Chu Trinh,Đường Phan Huy Chú,73.0,16500.0,,
64,29/11/2022,nan,3.0,3.0,Sổ đỏ/ Sổ hồng.,Cơ bản.,4 tầng,8.0,10 m,Hà Nội,Ba Đình,Phường Liễu Giai,Đường Văn Cao,40.0,9000.0,21.0395254,105.8158361
65,29/11/2022,nan,nan,nan,Sổ đỏ/ Sổ hồng.,Full nội thất cao cấp.,6 tầng,nan,nan,Hà Nội,Thanh Xuân,Phường Khương Mai,Đường Lê Trọng Tấn,62.0,10000.0,,
66,18/11/2022,nan,8.0,5.0,Sổ đỏ/ Sổ hồng,Đầy đủ nội thất,6 tầng,nan,nan,Hà Nội,Nam Từ Liêm,Phường Mỹ Đình 2,Đường Nguyễn Hoàng,40.0,7000.0,,
67,18/11/2022,nan,nan,nan,nan,nan,5 tầng,nan,nan,Hà Nội,Cầu Giấy,Phường Nghĩa Đô,Đường Hoàng Quốc Việt,40.0,7000.0,21.0461332,105.8019628
68,18/11/2022,nan,3.0,4.0,Sổ đỏ/ Sổ hồng,nan,5 tầng,nan,nan,Hà Nội,Long Biên,Phường Thạch Bàn,Đường Đàm Quang Trung,31.0,3300.0,,
69,18/11/2022,W,6.0,7.0,Sổ đỏ/ Sổ hồng.,Đầy đủ tiện nghi.,5 tầng,nan,6 m,Hà Nội,Hoàng Mai,Phường Giáp Bát,Đường Kim Đồng,65.0,10200.0,,
71,18/11/2022,E,nan,nan,Sổ đỏ chính chủ.,nan,2 tầng,6.5,nan,Hà Nội,Hai Bà Trưng,Phường Nguyễn Du,nan,130.0,75000.0,21.0171685,105.8479585
70,18/11/2022,E,nan,nan,nan,nan,3 tầng,3.2,nan,Hà Nội,Hai Bà Trưng,Phường Đống Mác,Phố Hương Viên,75.0,18000.0,21.0109669,105.8565964
72,18/11/2022,N,3.0,2.0,Sổ đỏ/ Sổ hồng.,Đầy đủ.,3 tầng,3.6,3.5 m,Hà Nội,Hoàng Mai,Phường Mai Động,Đường Minh Khai,32.0,3200.0,20.9930009,105.8623673
73,18/11/2022,S,5.0,4.0,Sổ đỏ/ Sổ hồng.,Hoàn thiện nội thất.,5 tầng,8.0,nan,Hà Nội.,Nam Từ Liêm,Thị trấn Cầu Diễn,Đường Hàm Nghi,152.0,32000.0,,
74,18/11/2022,nan,6.0,4.0,Đã có sổ đỏ.,Đày đủ.,5 tầng,4.0,3.5 m,Hà Nội,Thanh Trì,Xã Thanh Liệt,Đường Kim Giang,42.0,4150.0,,
75,29/11/2022,nan,nan,nan,Sổ đỏ.,nan,6 tầng,7.0,nan,Hà Nội,Long Biên,Phường Gia Thụy,Đường Nguyễn Văn Cừ,50.0,11500.0,21.0521699,105.8856987
76,25/11/2022,nan,nan,nan,Sổ đỏ,nan,6 tầng,nan,nan,Hà Nội,Long Biên,Phường Bồ Đề,Đường Nguyễn Văn Cừ,91.3,13786.3,21.0438146,105.8723178
77,29/11/2022,E,nan,nan,Sổ đỏ/ Sổ hồng,nan,3 tầng,5.6,30 m,Hà Nội,Hoàn Kiếm,Phường Hàng Bông,Phố Hàng Bông,276.0,98000.0,21.0283222,105.8437768
78,29/11/2022,nan,4.0,4.0,Sổ đỏ/ Sổ hồng.,Đầy đủ.,5 tầng,6.0,3 m,Hà Nội,Long Biên,Phường Cự Khối,Đường Hòa Bình,40.0,2950.0,21.0102322,105.9094602
79,29/11/2022,nan,nan,nan,nan,nan,5 tầng,5.0,nan,Hà Nội,Long Biên,Phường Phúc Đồng,Đường Nguyễn Lam,105.0,18900.0,,
80,29/11/2022,nan,4.0,3.0,Sổ đỏ/ Sổ hồng,nan,4 tầng,nan,nan,Hà Nội,Long Biên,Phường Ngọc Lâm,Đường Nguyễn Văn Cừ,48.0,3550.0,21.0441976,105.8727096
81,29/11/2022,N,3.0,4.0,Sổ đỏ/ Sổ hồng.,Nội thất cơ bản.,5 tầng,3.7,4 m,Hà Nội,Long Biên,Phường Thạch Bàn,Đường Nguyễn Văn Linh,40.0,3900.0,21.0245109,105.929998
82,29/11/2022,W,4.0,3.0,Sổ đỏ/ Sổ hồng.,Nội thất cơ bản.,4 tầng,3.8,2 m,Hà Nội,Long Biên,Phường Phúc Lợi,Đường Phúc Lợi,38.0,2850.0,21.038209,105.930126
83,29/11/2022,nan,3.0,3.0,Sổ đỏ/ Sổ hồng,Cơ bản.,3 tầng,3.5,nan,Hà Nội,Thanh Xuân,Phường Khương Trung,Phố Vũ Tông Phan,35.0,4900.0,20.9993598,105.8183169
84,29/11/2022,nan,4.0,3.0,Sổ đỏ/ Sổ hồng,nan,4 tầng,4.5,15 m,Hà Nội,Hai Bà Trưng,Phường Vĩnh Tuy,Phố Lạc Trung,62.0,18000.0,21.0030439,105.8697939
85,29/11/2022,nan,nan,nan,- Sổ đỏ chính chủ,nan,5 tầng,nan,nan,Hà Nội,Cầu Giấy,Phường Trung Hòa,Đường Hoàng Ngân,40.0,8000.0,,
86,29/11/2022,nan,6.0,6.0,Sẵn sổ,Cơ bản,3 tầng,nan,nan,Hà Nội,Thanh Xuân,Phường Khương Trung,Đường Khương Trung,66.5,6500.0,21.001638,105.8184796
87,25/11/2022,nan,3.0,4.0,Sổ đỏ/ Sổ hồng.,nan,5 tầng,nan,nan,Hà Nội,Hoàng Mai,Phường Tân Mai,Đường Trương Định,36.0,4000.0,20.9837437,105.8460482
88,29/11/2022,nan,3.0,4.0,Sổ đỏ/ Sổ hồng.,Đầy đủ.,5 tầng,3.5,5 m,Hà Nội,Hoàng Mai,Phường Hoàng Văn Thụ,Đường Hoàng Mai,32.0,3950.0,20.9876506,105.857676
89,29/11/2022,nan,4.0,6.0,Sổ đỏ.,Đầy đủ sang trọng.,6 tầng,5.1,5 m,Hà Nội,Hoàng Mai,Phường Thịnh Liệt,Đường Thịnh Liệt,23.0,4600.0,20.9649039,105.8570854
90,25/11/2022,nan,nan,nan,Sổ đỏ.,nan,6 tầng,nan,nan,Hà Nội,Hoàng Mai,Phường Giáp Bát,Đường Kim Đồng,50.0,10000.0,,
91,25/11/2022,nan,6.0,4.0,Sổ đỏ,nan,5 tầng,nan,nan,Hà Nội,Hoàng Mai,Phường Thịnh Liệt,Đường Bờ Sông Sét,42.0,4000.0,,
92,29/11/2022,nan,3.0,4.0,nan,nan,5 tầng,4.0,nan,Hà Nội,Hai Bà Trưng,Phường Minh Khai,nan,30.0,5000.0,20.9962306,105.857312
93,01/11/2022,E,6.0,4.0,Sổ đỏ/ Sổ hồng,Nội thất tạm đủ,5 tầng,6.0,100 m,Hà Nội,Tây Hồ,Phường Yên Phụ,Đường Nghi Tàm,98.0,13200.0,21.0525936,105.8381298
94,29/11/2022,nan,nan,nan,nan,nan,10 tầng,nan,nan,Hà Nội,Đống Đa,Phường Thịnh Quang,Đường Yên Lãng,180.0,34990.0,,
95,29/11/2022,nan,12.0,12.0,Sổ đỏ/ Sổ hồng,Nội thất đầy đủ.,7 tầng,5.0,3 m,Hà Nội,Thanh Xuân,Phường Nhân Chính,Đường Nguyễn Trãi,60.0,9800.0,,
96,28/11/2022,nan,4.0,3.0,Sổ đỏ/ Sổ hồng,Cơ bản,5 tầng,nan,3 m,Hà Nội,Bắc Từ Liêm,Phường Cổ Nhuế 2,Đường Cổ Nhuế,40.0,4200.0,21.0651071,105.779439
98,29/11/2022,nan,5.0,3.0,Sổ đỏ/ Sổ hồng,Đầy đủ,5 tầng,nan,3 m,Hà Nội,Bắc Từ Liêm,Phường Xuân Đỉnh,Đường Xuân Đỉnh,40.0,4200.0,21.0713312,105.7939692
99,29/11/2022,nan,4.0,3.0,Sổ đỏ/ Sổ hồng,nan,4 tầng,4.5,3 m,Hà Nội,Ba Đình,Phường Kim Mã,Phố Kim Mã,75.0,6999.0,21.0314529,105.8218018
97,29/11/2022,nan,nan,nan,Sổ đỏ/ Sổ hồng,nan,3 tầng,6.8,nan,Hà Nội,Ba Đình,Phường Cống Vị,Đường Đào Tấn,86.0,9900.0,21.034123700000002,105.80581121482803
100,29/11/2022,nan,5.0,5.0,nan,nan,5 tầng,4.1,5 m,Hà Nội,Thanh Xuân,Phường Khương Mai,Đường Lê Trọng Tấn,45.0,8000.0,,
101,29/11/2022,nan,4.0,4.0,Sổ đỏ/ Sổ hồng,nan,4 tầng,nan,nan,Hà Nội,Cầu Giấy,Phường Quan Hoa,Ngõ 92 Đường Nguyễn Khánh Toàn,57.0,8300.0,21.0374731,105.8023283
102,29/11/2022,W,3.0,4.0,Sổ đỏ/ Sổ hồng.,"Nội thất hoàn thiện gỗ lim, sồi, đồ đạc chuẩn.",4 tầng,4.0,nan,Hà Nội,Ba Đình,Phường Phúc Xá,Đường Tân Ấp,40.0,7600.0,21.0452019,105.8455084
104,29/11/2022,E,5.0,4.0,Sổ đỏ/ Sổ hồng.,nan,4 tầng,nan,nan,Hà Nội,Hoàng Mai,Phường Hoàng Văn Thụ,Đường Tân Mai,268.0,37520.0,,
103,29/11/2022,nan,nan,nan,Sổ đỏ,nan,5 tầng,nan,nan,Hà Nội,Tây Hồ,Phường Yên Phụ,Đường An Dương,54.0,13500.0,21.0549446,105.84033547686396
106,28/11/2022,nan,5.0,4.0,Sổ đỏ/ Sổ hồng,nan,6 tầng,6.0,10 m,Hà Nội,Tây Hồ,Phường Thụy Khuê,Đường Trích Sài,70.0,50000.0,,
107,24/11/2022,nan,1.0,1.0,Sổ đỏ/ Sổ hồng.,Đầy đủ.,1 tầng,6.0,17 m,Hà Nội,Long Biên,Phường Long Biên,Đường Tư Đình,155.0,15500.0,,
105,29/11/2022,nan,2.0,3.0,Sổ đỏ/ Sổ hồng,nan,4 tầng,nan,nan,Hà Nội,Hai Bà Trưng,Phường Minh Khai,Đường Dương Văn Bé,35.0,2730.0,20.9933268,105.8526027
108,29/11/2022,nan,4.0,nan,"Sổ đẹp, pháp lý sạch, giao dịch ngay",nan,5 tầng,nan,nan,Hà Nội,Hoàn Kiếm,Phường Cửa Nam,Phố Cửa Nam,120.0,27500.0,21.0278809,105.8427268
109,29/11/2022,nan,4.0,4.0,Sổ đỏ/ Sổ hồng,Nội thất đầy đủ ,5 tầng,6.0,2.5 m,Hà Nội,Thanh Xuân,Phường Thượng Đình,Phố Cự Lộc,51.0,4800.0,21.0027459,105.8134875
110,29/11/2022,nan,5.0,4.0,Sổ đỏ/ Sổ hồng,nan,5 tầng,4.0,nan,Hà Nội,Nam Từ Liêm,Phường Mỹ Đình 2,Đường Lê Đức Thọ,40.0,6200.0,21.0252949,105.7676833
111,29/11/2022,nan,4.0,3.0,nan,nan,4 tầng,nan,nan,Hà Nội,Hai Bà Trưng,Phường Bạch Đằng,Đường Đầm Trấu,54.0,10500.0,,
112,29/11/2022,S,1.0,1.0,Sổ đỏ/ Sổ hồng,Nội thất cơ bản.,1 tầng,5.0,4 m,Hà Nội,Tây Hồ,Phường Phú Thượng,Đường An Dương Vương,65.0,13000.0,21.0897989,105.7948065
113,28/11/2022,nan,3.0,3.0,Sổ đỏ/ Sổ hồng.,Đầy đủ.,3 tầng,4.0,4 m,Hà Nội,Long Biên,Phường Long Biên,Đường Cổ Linh,50.0,3150.0,21.0230047,105.9053622
115,29/11/2022,W,nan,nan,nan,nan,6 tầng,nan,nan,Hà Nội,Hai Bà Trưng,Phường Thanh Lương,Đường Kim Ngưu,80.0,31000.0,,
114,28/11/2022,nan,4.0,5.0,Sổ đỏ/ Sổ hồng,Đầy đủ,4 tầng,4.0,4 m,Hà Nội,Long Biên,Phường Bồ Đề,Đường Bồ Đề,51.0,3950.0,21.055968749999998,105.88449242832769
116,29/11/2022,E,nan,nan,Sổ đỏ/ Sổ hồng,nan,4 tầng,5.0,17 m,Hà Nội,Hà Đông,Phường La Khê,Đường Tố Hữu,82.5,14000.0,,
117,29/11/2022,nan,3.0,nan,Sổ đỏ/ Sổ hồng,Đầy đủ,4 tầng,4.2,10 m,Hà Nội,Đống Đa,Phường Cát Linh,Phố Giảng Võ,52.0,10600.0,21.0281445,105.8254323
119,17/11/2022,nan,4.0,nan,Sổ đỏ/ Sổ hồng.,"Full nội thất, nhập khẩu cao cấp.",8 tầng,10.0,nan,Hà Nội,Cầu Giấy,Phường Trung Hòa,Phố Trung Kính,120.0,45000.0,21.0167474,105.7939251
118,29/11/2022,nan,4.0,4.0,Sổ đỏ/ Sổ hồng.,nan,5 tầng,4.0,8 m,Hà Nội,Long Biên,Phường Ngọc Lâm,Đường Long Biên 2,52.0,10000.0,21.0433171,105.865307
120,17/11/2022,nan,4.0,3.0,Sổ đỏ/ Sổ hồng,nan,4 tầng,5.6,3.5 m,Hà Nội,Ba Đình,Phường Ngọc Khánh,Phố Ngọc Khánh,55.0,5200.0,21.0269918,105.8177995
121,17/11/2022,nan,21.0,21.0,Sổ hồng,Nội thất đầy đủ,9 tầng,7.0,3 m,Hà Nội,Tây Hồ,Phường Bưởi,Đường Trích Sài,97.2,28000.0,,
122,17/11/2022,E,15.0,15.0,Sổ đỏ/ Sổ hồng,nan,7 tầng,6.3,nan,Hà Nội,Cầu Giấy,Phường Dịch Vọng Hậu,Phố Dịch Vọng Hậu,64.0,13100.0,21.0321622,105.7869728
123,10/11/2022,nan,nan,nan,Sổ đỏ chính chủ,nan,3 tầng,7.5,15 m,Hà Nội,Tây Hồ,Phường Phú Thượng,Đường Lạc Long Quân,150.0,33000.0,21.0735573,105.8127878
125,09/11/2022,nan,nan,nan,nan,nan,6 tầng,6.0,40 m,Hà Nội,Tây Hồ,Phường Phú Thượng,Đường Lạc Long Quân,120.0,30000.0,21.0735573,105.8127878
124,09/11/2022,nan,nan,2.0,Mua bán vi bằng,Full nội thất,2 tầng,nan,nan,Hà Nội,Tây Hồ,Phường Quảng An,Đường Âu Cơ,25.0,1500.0,21.0685503,105.8261381
126,08/11/2022,W,5.0,6.0,Hợp đồng mua bán.,nan,4 tầng,6.0,30 m,Hà Nội,Hoàng Mai,Phường Yên Sở,727 Đường Tam Trinh,96.0,17500.0,20.9642846,105.8685795
127,29/11/2022,E,4.0,4.0,Sổ đỏ/ Sổ hồng,Nội thất cơ bản.,4 tầng,5.0,4.5 m,Hà Nội,Tây Hồ,Phường Phú Thượng,Đường An Dương Vương,80.0,16000.0,21.0897989,105.7948065
128,29/11/2022,nan,13.0,15.0,Sổ đỏ/ Sổ hồng,Đầy đủ,7 tầng,4.5,42 m,Hà Nội,Long Biên,Phường Long Biên,Đường Cổ Linh,82.0,21500.0,21.0230047,105.9053622
129,29/11/2022,E,8.0,8.0,nan,Cơ Bản ,8 tầng,6.2,9 m,Hà Nội,Cầu Giấy,Phường Nghĩa Đô,Đường Hoàng Quốc Việt,195.0,80000.0,21.0461332,105.8019628
131,29/11/2022,W,nan,nan,nan,nan,8 tầng,4.0,nan,Hà Nội,Hoàn Kiếm,Phường Trần Hưng Đạo,Đường Hạ Hồi,73.0,21000.0,,
130,23/11/2022,nan,5.0,3.0,Sổ đỏ/ Sổ hồng,nan,3 tầng,7.6,8 m,Hà Nội,Tây Hồ,Phường Yên Phụ,Đường An Dương,150.0,16500.0,21.0549446,105.84033547686396
132,29/11/2022,nan,7.0,6.0,Sổ đỏ chính chủ,nan,6 tầng,nan,5 m,Hà Nội,Hai Bà Trưng,Phường Bách Khoa,Phố Tạ Quang Bửu,70.0,16000.0,21.0054996,105.8471794
133,29/11/2022,W,nan,nan,nan,nan,8 tầng,4.0,nan,Hà Nội,Hoàn Kiếm,Phường Trần Hưng Đạo,Đường Hạ Hồi,73.0,21000.0,,
134,29/11/2022,nan,5.0,4.0,Sổ đỏ chính chủ.,Đầy đủ,5 tầng,6.0,5 m,Hà Nội,Cầu Giấy,Phường Mai Dịch,Phố Trần Bình,35.0,4900.0,21.0334357,105.7788804
135,29/11/2022,E,5.0,5.0,Sổ đỏ/ Sổ hồng.,Nội thất đầy đủ.,4 tầng,5.5,nan,Hà Nội,Long Biên,Phường Đức Giang,nan,110.0,20350.0,21.0646143,105.8977054
136,29/11/2022,nan,5.0,4.0,Sổ đỏ/ Sổ hồng,Đầy đủ,5 tầng,3.2,15 m,Hà Nội,Tây Hồ,Phường Tứ Liên,Đường Tứ Liên,50.0,15500.0,21.0646509,105.8297651
137,21/11/2022,W,6.0,3.0,Sổ đỏ/ Sổ hồng,Nội thất cơ bản.,3 tầng,3.6,2.5 m,Hà Nội,Thanh Xuân,Phường Phương Liệt,Phố Hà Kế Tấn,69.0,8200.0,20.9893207,105.8375246
138,29/11/2022,nan,3.0,3.0,Sổ đỏ/ Sổ hồng,nan,4 tầng,6.3,2 m,Hà Nội,Hoài Đức,Xã Di Trạch,Đường Văn Minh,30.0,2400.0,,
139,29/11/2022,W,4.0,4.0,Sổ đỏ/ Sổ hồng,Không nội thất,4 tầng,7.0,14 m,Hà Nội,Tây Hồ,Phường Phú Thượng,Đường Võ Chí Công,149.0,44698.51,21.0764727,105.8116932
140,22/11/2022,nan,5.0,4.0,Sổ đỏ/ Sổ hồng.,Nội thất cao cấp.,5 tầng,3.8,3 m,Hà Nội,Nam Từ Liêm,Phường Phú Đô,Đường Lê Quang Đạo,42.0,4500.0,21.0089131,105.773176
141,24/11/2022,nan,3.0,4.0,Sổ đỏ/ Sổ hồng,Nội thất cao cấp,5 tầng,3.5,3 m,Hà Nội,Nam Từ Liêm,Phường Phú Đô,Đường Lê Quang Đạo,35.0,3700.0,21.0089131,105.773176
142,29/11/2022,nan,2.0,nan,Sổ đỏ chính chủ,"Nhà cũ, xác định bán đất.",2 tầng,nan,nan,Hà Nội,Tây Hồ,Phường Thụy Khuê,Đường Thụy Khuê,51.0,7200.0,21.0433663,105.8177621
143,29/11/2022,nan,4.0,nan,Sổ đỏ/ Sổ hồng,Nội thất đầy đủ,5 tầng,3.7,2 m,Hà Nội,Đống Đa,Phường Láng Thượng,Phố Chùa Láng,41.0,4850.0,21.0230652,105.8080838
145,29/11/2022,nan,12.0,4.0,Sổ đỏ/ Sổ hồng,nan,4 tầng,4.0,4 m,Hà Nội,Cầu Giấy,Phường Nghĩa Đô,Phố Phùng Chí Kiên,71.0,10000.0,21.0451018,105.8025169
144,29/11/2022,S,nan,6.0,Sổ đỏ cầm tay ( ko vay ngân hàng ),nan,4 tầng,13.0,60 m,Hà Nội,Đống Đa,Phường Nam Đồng,502 Phố Xã Đàn,448.0,277000.0,21.0175219,105.831031
147,29/11/2022,nan,4.0,5.0,Sổ đỏ/ Sổ hồng,Đầy đủ,5 tầng,6.1,nan,Hà Nội,Thanh Xuân,Phường Hạ Đình,Đường Khương Trung,52.0,7700.0,21.0015264,105.818313
146,29/11/2022,nan,7.0,8.0,Sổ đỏ/ Sổ hồng,Đầy đủ,4 tầng,50.0,20 m,Hà Nội,Ba Vì,Xã Minh Quang,Đường ĐT 414,5000.0,20000.0,21.0733627,105.3226202
148,29/11/2022,nan,3.0,2.0,Sổ đỏ/ Sổ hồng,nan,3 tầng,4.2,4 m,Hà Nội,Ba Đình,Phường Liễu Giai,Đường Văn Cao,51.0,8500.0,21.0395254,105.8158361
149,29/11/2022,nan,3.0,nan,Sổ đỏ/ Sổ hồng,nan,4 tầng,nan,nan,Hà Nội,Cầu Giấy,Phường Mai Dịch,Phố Mai Dịch,38.0,6600.0,21.0434187,105.77536
150,29/11/2022,W,nan,nan,nan,nan,5 tầng,nan,nan,Hà Nội,Hoàng Mai,Phường Hoàng Văn Thụ,Đường Tân Mai,93.8,12194.0,,
151,29/11/2022,nan,nan,nan,nan,nan,5 tầng,nan,nan,Hà Nội,Đống Đa,Phường Nam Đồng,Phố Xã Đàn,50.0,6900.0,21.0176921,105.830155
152,29/11/2022,nan,3.0,4.0,Sổ đỏ/ Sổ hồng,nan,7 tầng,4.5,4 m,Hà Nội,Cầu Giấy,Phường Nghĩa Đô,Phố Phùng Chí Kiên,50.0,10500.0,21.0451018,105.8025169
153,29/11/2022,nan,4.0,nan,Sổ đỏ/ Sổ hồng,Đầy đủ,5 tầng,4.0,nan,Hà Nội,Thanh Xuân,Phường Khương Đình,Đường Bùi Xương Trạch,35.0,4400.0,,
154,29/11/2022,nan,4.0,nan,Sổ đỏ,nan,4 tầng,nan,nan,Hà Nội,Cầu Giấy,Phường Quan Hoa,Đường Dương Quảng Hàm,42.0,5300.0,21.0351399,105.8001548
156,29/11/2022,nan,5.0,5.0,Sổ đỏ/ Sổ hồng,Đầy đủ,4 tầng,5.0,8 m,Hà Nội,Thanh Trì,Xã Thanh Liệt,nan,90.0,11800.0,20.9658339,105.8146817
155,29/11/2022,nan,4.0,nan,Sổ đẹp sẵn sàng.,Cao cấp.,5 tầng,5.0,nan,Hà Nội.,Nam Từ Liêm,Phường Mỹ Đình 1,Đường Mỹ Đình,36.0,3900.0,21.0225553,105.7745578
157,29/11/2022,nan,3.0,nan,Sổ đỏ/ Sổ hồng,Đầy đủ,4 tầng,4.2,3 m,Hà Nội,Ba Đình,Phường Vĩnh Phúc,Đường Hoàng Hoa Thám,35.0,4800.0,21.0460074,105.8110403
158,28/11/2022,E,7.0,7.0,Sổ đỏ/ Sổ hồng,Hoàn thiện mặt ngoài,6 tầng,6.5,22 m,Hà Nội,Hà Đông,Phường Vạn Phúc,Đường Tố Hữu,91.0,16000.0,,
160,23/11/2022,E,5.0,4.0,Sổ đỏ/ Sổ hồng,nan,5 tầng,nan,nan,Hà Nội,Cầu Giấy,Phường Yên Hòa,Đường Nguyễn Khang,36.0,4350.0,21.0203224,105.7998843
159,01/11/2022,nan,nan,nan,nan,nan,5 tầng,nan,nan,Hà Nội,Hà Đông,Phường Phúc La,nan,75.0,16000.0,20.9675836,105.7895084
161,27/11/2022,nan,6.0,4.0,Sổ đỏ/ Sổ hồng,Nội thất đầy đủ,5 tầng,4.5,3 m,Hà Nội,Bắc Từ Liêm,Phường Cổ Nhuế 2,Đường Cổ Nhuế,55.0,6500.0,21.0651071,105.779439
162,25/11/2022,nan,nan,nan,Sổ đỏ lâu dài.,nan,4 tầng,6.4,30 m,Hà Nội,Long Biên,Phường Phúc Đồng,Phố Mai Phúc,102.0,19000.0,21.0413879,105.9013569
164,29/11/2022,nan,4.0,3.0,Sổ đỏ/ Sổ hồng.,nan,4 tầng,4.8,3 m,Hà Nội,Hoàng Mai,Phường Tân Mai,nan,55.0,5500.0,20.9829654,105.8488998
165,29/11/2022,W,3.0,3.0,Sổ đỏ/ Sổ hồng,nan,4 tầng,4.0,4 m,Hà Nội,Tây Hồ,Phường Phú Thượng,Đường An Dương Vương,65.0,12000.0,21.0897989,105.7948065
166,29/11/2022,nan,nan,nan,Sổ đỏ/ Sổ hồng,nan,5 tầng,nan,nan,Hà Nội,Long Biên,Phường Phúc Đồng,Đường Nguyễn Lam,183.0,39500.0,,
163,27/11/2022,nan,nan,nan,Hợp đồng mua bán.,nan,5 tầng,6.5,30 m,Hà Nội,Gia Lâm,Xã Cổ Bi,Đường Quốc Lộ 5,87.5,8312.5,,
167,29/11/2022,nan,6.0,7.0,nan,nan,7 tầng,5.0,50 m,Hà Nội,Đống Đa,Phường Nam Đồng,Phố Xã Đàn,75.0,46000.0,21.0176921,105.830155
169,29/11/2022,E,4.0,2.0,Sổ đỏ chính chủ.,nan,3 tầng,20.0,6 m,Hà Nội,Thanh Xuân,Phường Kim Giang,Đường Hoàng Đạo Thành,200.0,29000.0,,
168,29/11/2022,nan,2.0,nan,nan,nan,1 tầng,5.1,50 m,Hà Nội,Hai Bà Trưng,Phường Đồng Tâm,Phố Đại La,131.0,40500.0,20.9975161,105.8429054
170,29/11/2022,nan,4.0,3.0,Sổ đỏ/ Sổ hồng,nan,4 tầng,4.5,15 m,Hà Nội,Hai Bà Trưng,Phường Ngô Thì Nhậm,Phố Lò Đúc,80.0,47500.0,,
171,29/11/2022,nan,6.0,nan,nan,nan,5 tầng,4.1,50 m,Hà Nội,Hai Bà Trưng,Phường Bạch Mai,Phố Đại La,75.0,22500.0,,
173,29/11/2022,nan,2.0,3.0,Sổ đỏ,nan,5 tầng,5.0,15 m,Hà Nội,Hai Bà Trưng,Phường Ngô Thì Nhậm,Đường Ngô Thì Nhậm,33.0,15500.0,,
172,29/11/2022,nan,7.0,7.0,Sổ đỏ/ Sổ hồng,Cao cấp,7 tầng,5.0,30 m,Hà Nội,Đống Đa,Phường Phương Liên,Phố Xã Đàn,45.0,37000.0,21.0097766,105.8379292
174,29/11/2022,nan,nan,nan,nan,nan,4 tầng,nan,nan,Hà Nội,Đống Đa,Phường Kim Liên,Phố Xã Đàn,32.0,15600.0,,
175,28/11/2022,E,4.0,3.0,Sổ đỏ/ Sổ hồng,Đầy đủ,4 tầng,3.2,2.32 m,Hà Nội.,Nam Từ Liêm,Phường Mễ Trì,Đường Mễ Trì Hạ,41.4,4590.0,21.0111985,105.773048
176,29/11/2022,nan,6.0,nan,nan,nan,5 tầng,5.0,40 m,Hà Nội,Hai Bà Trưng,Phường Phố Huế,Đường Trần Khát Chân,80.0,35000.0,21.0087165,105.8528678
177,28/11/2022,E,3.0,4.0,Sổ đỏ/ Sổ hồng.,Cơ bản.,5 tầng,4.0,2.5 m,Hà Nội.,Nam Từ Liêm,Phường Phương Canh,Đường Nhổn,30.0,3150.0,21.0393896,105.7682043
178,29/11/2022,nan,3.0,3.0,Sổ đỏ/ Sổ hồng,nan,4 tầng,4.2,nan,Hà Nội,Ba Đình,Phường Đội Cấn,Đường Đội Cấn,75.0,13800.0,21.0358189,105.8348752
179,25/11/2022,E,3.0,4.0,Sổ đỏ/ Sổ hồng,Cơ bản.,5 tầng,4.0,2 m,Hà Nội,Bắc Từ Liêm,Phường Minh Khai,Đường Phúc Lý,30.0,3200.0,,
180,28/11/2022,W,4.0,4.0,Sổ đỏ/ Sổ hồng,nan,4 tầng,6.0,30 m,Hà Nội,Hoàn Kiếm,Phường Cửa Đông,Phố Phùng Hưng,102.0,41500.0,21.0329669,105.8453751
181,28/11/2022,W,4.0,4.0,Sổ đỏ,nan,3 tầng,7.0,20 m,Hà Nội,Tây Hồ,Phường Phú Thượng,Đường Lạc Long Quân,126.0,34000.0,21.0735573,105.8127878
182,29/11/2022,E,3.0,4.0,Sổ đỏ/ Sổ hồng,Nội thất cơ bản,5 tầng,3.5,2.5 m,Hà Nội,Bắc Từ Liêm,Phường Phú Diễn,Đường Phú Diễn,30.0,3550.0,21.0443694,105.7620895
183,25/11/2022,E,2.0,1.0,Sổ đỏ/ Sổ hồng,nan,1 tầng,4.5,3.5 m,Hà Nội,Gia Lâm,Xã Cổ Bi,Số 6 ngách 37 ngõ 2 đường Đê Vàng,86.0,4100.0,,
184,29/11/2022,E,6.0,6.0,Sổ đỏ/ Sổ hồng,nan,6 tầng,5.0,60 m,Hà Nội,Tây Hồ,Phường Xuân La,Đường Xuân La,112.0,50000.0,21.0670509,105.8040892
186,29/11/2022,nan,4.0,4.0,Sổ đỏ/ Sổ hồng,nan,5 tầng,4.0,9 m,Hà Nội,Cầu Giấy,Phường Dịch Vọng,Đường Thành Thái,50.0,11200.0,21.0355095,105.7891451
185,29/11/2022,nan,6.0,5.0,Sổ đỏ/ Sổ hồng,Đủ đồ,5 tầng,4.0,3 m,Hà Nội,Hai Bà Trưng,Phường Bạch Mai,Phố Bạch Mai,45.0,5500.0,21.0029814,105.8508645
187,29/11/2022,nan,3.0,3.0,Sổ đỏ/ Sổ hồng,nan,4 tầng,nan,nan,Hà Nội,Long Biên,Phường Ngọc Lâm,Đường Ngọc Lâm,42.0,3100.0,21.04552255,105.86823883267425
188,29/11/2022,nan,5.0,nan,Sổ đỏ/ Sổ hồng,nan,4 tầng,nan,5 m,Hà Nội,Bắc Từ Liêm,Phường Xuân Đỉnh,Đường Phạm Văn Đồng,40.0,6500.0,21.0799069,105.7884377
189,24/11/2022,nan,4.0,nan,Sổ đỏ/ Sổ hồng,nan,5 tầng,nan,nan,Hà Nội,Hoài Đức,Xã Song Phương,Đường Song Phương,111.0,7000.0,21.015711,105.6970672
190,23/11/2022,nan,4.0,2.0,Sổ đỏ,nan,4 tầng,nan,nan,Hà Nội,Bắc Từ Liêm,Phường Cổ Nhuế 2,nan,45.0,2900.0,21.0707724,105.7770682
191,29/11/2022,nan,nan,nan,Sổ đỏ.,nan,3 tầng,7.0,21 m,Hà Nội,Tây Hồ,Phường Phú Thượng,nan,140.0,38500.0,21.0869773,105.8206363
192,06/12/2022,nan,3.0,nan,Sổ đỏ/ Sổ hồng,nan,5 tầng,nan,nan,Hà Nội,Bắc Từ Liêm,Phường Xuân Đỉnh,Đường Xuân Đỉnh,35.0,3900.0,21.0713312,105.7939692
193,06/12/2022,nan,4.0,3.0,Có sổ.,nan,4 tầng,nan,nan,Hà Nội,Thanh Trì,Xã Hữu Hòa,Đường Hữu Lê,38.0,2300.0,,
194,06/12/2022,nan,9.0,10.0,"Sổ đỏ nở hậu, giao dịch ngay",Full nội thất,6 tầng,4.0,3 m,Hà Nội,Đống Đa,Phường Phương Liên,Đường Lê Duẩn,65.0,11800.0,21.0083377,105.8412925
196,06/12/2022,W,3.0,3.0,"Sổ đỏ chính chủ, sẵng sàng giao dịch",Đầy đủ,4 tầng,4.2,4 m,Hà Nội,Tây Hồ,Phường Xuân La,Đường Xuân La,40.0,4900.0,21.0670509,105.8040892
195,06/12/2022,E,4.0,4.0,nan,Nội thất cơ bản.,4 tầng,8.0,30 m,Hà Nội,Gia Lâm,Xã Dương Xá,Đường 20,150.0,25500.0,20.9971222,105.9543289
197,06/12/2022,N,nan,nan,Sổ đỏ chính chủ,nan,3 tầng,nan,nan,Hà Nội.,Hoài Đức,Xã An Khánh,nan,243.0,41310.0,21.0002679,105.72197311297315
198,27/11/2022,nan,9.0,nan,Sổ đỏ/ Sổ hồng,nan,5 tầng,nan,4 m,Hà Nội,Nam Từ Liêm,Phường Mỹ Đình 2,Đường Phú Mỹ,50.0,6300.0,21.0295535,105.7720989
200,21/11/2022,W,3.0,4.0,nan,nan,5 tầng,4.45,2.5 m,Hà Nội,Nam Từ Liêm,Phường Tây Mỗ,Phố Cầu Cốc,33.0,3350.0,21.003743,105.7422034
201,27/11/2022,nan,4.0,5.0,Sổ đỏ/ Sổ hồng,Hiện có,6 tầng,5.9,4 m,Hà Nội,Đống Đa,Phường Cát Linh,Phố Hoàng Cầu,60.0,18900.0,,
199,27/11/2022,E,3.0,3.0,Sổ đỏ/ Sổ hồng,Nội thất đầy đủ,4 tầng,3.0,2.5 m,Hà Nội,Hà Đông,Phường Dương Nội,Đường Ỷ La,30.0,3000.0,20.9726214,105.7433177
203,22/11/2022,nan,9.0,nan,Sổ đỏ/ Sổ hồng,nan,5 tầng,nan,nan,Hà Nội,Cầu Giấy,Phường Dịch Vọng Hậu,Đường Xuân Thủy,50.0,5900.0,21.0365402,105.7848143
202,23/11/2022,nan,9.0,nan,Sổ đỏ/ Sổ hồng,nan,5 tầng,nan,3 m,Hà Nội,Nam Từ Liêm,Phường Mỹ Đình 2,Đường Lê Đức Thọ,50.0,5600.0,21.0252949,105.7676833
205,06/12/2022,nan,3.0,4.0,Sổ đỏ/ Sổ hồng.,nan,5 tầng,nan,nan,Hà Nội.,Nam Từ Liêm,Phường Phương Canh,Đường Tu Hoàng,30.0,2980.0,,
204,25/11/2022,nan,9.0,9.0,Sổ đỏ/ Sổ hồng,nan,5 tầng,nan,nan,Hà Nội,Nam Từ Liêm,Phường Mỹ Đình 2,Đường Lê Đức Thọ,50.0,5800.0,21.0252949,105.7676833
206,06/12/2022,nan,6.0,7.0,Sổ đỏ.,nan,8 tầng,5.0,5 m,Hà Nội,Cầu Giấy,Phường Yên Hòa,Phố Trung Kính,73.0,29500.0,21.0212449,105.791192
207,06/12/2022,nan,4.0,nan,Sổ đỏ/ Sổ hồng,Đầy đủ,4 tầng,nan,nan,Hà Nội,Hoàng Mai,Phường Lĩnh Nam,Đường Lĩnh Nam,37.0,2490.0,20.979603,105.892813
208,06/12/2022,E,6.0,5.0,nan,Cơ bản,5 tầng,5.5,15 m,Hà Nội,Thanh Xuân,Phường Hạ Đình,Đường Nguyễn Xiển,85.0,17000.0,20.9867356,105.8070204
210,30/11/2022,nan,4.0,4.0,Sổ đỏ/ Sổ hồng.,Đầy đủ.,3 tầng,21.5,30 m,Hà Nội,Gia Lâm,Xã Dương Xá,nan,327.9,65000.0,21.0022646,105.9643263
211,01/12/2022,nan,2.0,2.0,Sổ đỏ/ Sổ hồng,nan,2 tầng,nan,2.5 m,Hà Nội,Bắc Từ Liêm,Phường Minh Khai,Đường Ngọa Long,33.0,2450.0,,
209,06/12/2022,W,5.0,3.0,Sổ đỏ/ Sổ hồng,Cơ bản,4 tầng,3.4,3 m,Hà Nội,Hoài Đức,Xã Di Trạch,Đường Di Trạch,39.0,2950.0,21.0500573,105.7243446
212,06/12/2022,nan,8.0,4.0,Sổ đỏ/ Sổ hồng.,nan,4 tầng,5.0,nan,Hà Nội,Long Biên,Phường Long Biên,Đường Tư Đình,77.0,13500.0,,
213,05/12/2022,nan,3.0,nan,Sổ đỏ chính chủ.,nan,5 tầng,6.0,nan,Hà Nội,Thanh Xuân,Phường Khương Đình,Đường Bùi Xương Trạch,50.0,3500.0,,
214,06/12/2022,nan,2.0,2.0,Sổ đỏ/ Sổ hồng,Cơ bản,2 tầng,nan,nan,Hà Nội,Bắc Từ Liêm,Phường Cổ Nhuế 1,Phố Trần Cung,47.0,3650.0,21.0492549,105.7899468
215,06/12/2022,nan,5.0,3.0,Sổ đỏ/ Sổ hồng,Cơ bản,6 tầng,4.0,20 m,Hà Nội,Cầu Giấy,Phường Mai Dịch,Phố Doãn Kế Thiện,50.0,15900.0,21.0423584,105.7744301
216,06/12/2022,nan,3.0,3.0,Sổ đỏ/ Sổ hồng,nan,4 tầng,nan,nan,Hà Nội,Bắc Từ Liêm,Phường Liên Mạc,Đường Sùng Khang,30.0,2500.0,21.0809653,105.7408397
217,06/12/2022,nan,3.0,nan,Sổ đỏ/ Sổ hồng,Đầy đủ,5 tầng,4.0,3 m,Hà Nội,Đống Đa,Phường Văn Chương,Đường Cát Linh,58.0,5100.0,,
218,06/12/2022,nan,2.0,4.0,Đã có sổ,Đầy đủ,5 tầng,nan,nan,Hà Nội,Đống Đa,Phường Khâm Thiên,Phố Khâm Thiên,35.0,3030.0,21.0188336,105.8408335
219,06/12/2022,nan,nan,nan,Sổ đỏ,nan,4 tầng,nan,nan,Hà Nội,Đống Đa,Phường Phương Liên,Đường Hồ Ba Mẫu,50.0,10000.0,,
220,06/12/2022,nan,3.0,4.0,Sổ đỏ chính chủ,nan,5 tầng,nan,nan,Hà Nội,Hoài Đức,Xã Kim Chung,Đường 32,30.0,2650.0,21.0635599,105.719012
221,06/12/2022,nan,8.0,nan,Sổ đỏ/ Sổ hồng,nan,5 tầng,4.0,7 m,Hà Nội,Cầu Giấy,Phường Trung Hòa,Đường Trần Duy Hưng,55.0,12000.0,21.0091282,105.797841
223,06/12/2022,nan,3.0,3.0,Sổ đỏ/ Sổ hồng,Đầy đủ,4 tầng,nan,nan,Hà Nội,Thanh Xuân,Phường Khương Đình,Đường Khương Đình,45.0,6800.0,20.9899395,105.8238236
222,06/12/2022,nan,2.0,2.0,Đã có sổ,Đầy đủ,4 tầng,nan,nan,Hà Nội,Đống Đa,Phường Ô Chợ Dừa,Phố Tôn Đức Thắng,18.0,1350.0,21.018422,105.8296848
224,06/12/2022,nan,5.0,4.0,Sổ đỏ.,nan,4 tầng,4.0,nan,Hà Nội,Hoàng Mai,Phường Tương Mai,Đường Nguyễn Đức Cảnh,49.0,5600.0,20.9889605,105.8529436
226,06/12/2022,nan,3.0,3.0,Sổ đỏ/ Sổ hồng,nan,3 tầng,9.0,nan,Hà Nội,Hoàn Kiếm,Phường Hàng Trống,Đường Đinh Tiên Hoàng,215.0,350000.0,,
227,06/12/2022,nan,3.0,3.0,nan,Đầy đủ.,4 tầng,3.8,4.2 m,Hà Nội,Chương Mỹ,Xã Phụng Châu,Đường 6,32.0,1470.0,,
225,06/12/2022,nan,2.0,3.0,Đã có sổ,Đầy đủ,3 tầng,5.0,3 m,Hà Nội,Đống Đa,Phường Nam Đồng,Đường Hồ Đắc Di,34.0,2480.0,,
228,30/11/2022,nan,4.0,nan,nan,nan,6 tầng,5.8,nan,Hà Nội,Cầu Giấy,Phường Nghĩa Đô,Đường Hoàng Quốc Việt,40.0,9600.0,21.0461332,105.8019628
229,03/12/2022,nan,3.0,2.0,nan,nan,2 tầng,3.5,nan,Hà Nội,Hà Đông,Phường Yên Nghĩa,nan,32.0,1550.0,20.9501954,105.73651204734986
230,06/12/2022,nan,nan,nan,Sổ đỏ/ Sổ hồng,Đầy đủ,3 tầng,nan,nan,Hà Nội,Hai Bà Trưng,Phường Thanh Lương,Đường Kim Ngưu,65.0,4350.0,,
231,06/12/2022,nan,4.0,4.0,Sổ đỏ,nan,5 tầng,5.0,15 m,Hà Nội,Hà Đông,Phường Dương Nội,Đường Lê Trọng Tấn,80.0,11500.0,20.995014,105.7354473
232,06/12/2022,S,3.0,4.0,Sổ đỏ/ Sổ hồng,nan,5 tầng,3.2,2 m,Hà Nội,Đống Đa,Phường Phương Liên,Phố Kim Hoa,35.0,4400.0,21.0092964,105.8395177
233,06/12/2022,nan,8.0,nan,nan,nan,7 tầng,nan,nan,Hà Nội,Cầu Giấy,Phường Dịch Vọng Hậu,Đường Nguyễn Phong Sắc,97.0,29500.0,21.0383701,105.7903315
234,06/12/2022,nan,4.0,4.0,Đã có sổ,Cơ bản,4 tầng,4.0,4 m,Hà Nội,Hà Đông,Phường La Khê,Đường Lê Trọng Tấn,40.0,4500.0,20.9670155,105.7564787
235,06/12/2022,nan,4.0,nan,nan,nan,4 tầng,nan,nan,Hà Nội,Cầu Giấy,Phường Quan Hoa,Đường Cầu Giấy,40.0,21500.0,21.0319877,105.7994621
236,06/12/2022,nan,8.0,nan,nan,nan,6 tầng,nan,nan,Hà Nội,Cầu Giấy,Phường Nghĩa Đô,Đường Tô Hiệu,57.0,23000.0,,
237,06/12/2022,nan,3.0,2.0,Sổ đỏ/ Sổ hồng,nan,3 tầng,nan,nan,Hà Nội,Hoài Đức,Xã An Khánh,nan,31.0,1750.0,21.0002679,105.72197311297315
239,06/12/2022,nan,5.0,nan,Sổ đỏ chính chủ.,nan,6 tầng,nan,nan,Hà Nội,Cầu Giấy,Phường Trung Hòa,Đường Mạc Thái Tổ,45.0,21500.0,,
238,06/12/2022,nan,4.0,nan,nan,nan,5 tầng,3.8,2.5 m,Hà Nội,Hai Bà Trưng,Phường Lê Đại Hành,Đường Lê Đại Hành,47.0,7800.0,21.0082522,105.8413873
240,06/12/2022,nan,3.0,nan,nan,nan,5 tầng,nan,nan,Hà Nội,Long Biên,Phường Ngọc Thụy,nan,35.0,3350.0,21.061566650000003,105.85972282899955
241,06/12/2022,nan,4.0,3.0,Sổ đỏ/ Sổ hồng,nan,4 tầng,4.0,5 m,Hà Nội,Hai Bà Trưng,Phường Quỳnh Mai,Phố 8/3,54.0,10500.0,20.9999827,105.8605221
242,06/12/2022,nan,4.0,nan,Sổ đỏ,nan,4 tầng,nan,nan,Hà Nội,Cầu Giấy,Phường Dịch Vọng,Đường Trần Đăng Ninh,40.0,22000.0,,
243,06/12/2022,nan,4.0,5.0,Sổ đỏ.,nan,6 tầng,4.1,7 m,Hà Nội,Hoàng Mai,Phường Giáp Bát,Đường Kim Đồng,47.0,13900.0,,
244,06/12/2022,nan,8.0,nan,Sổ đỏ,nan,5 tầng,nan,nan,Hà Nội,Cầu Giấy,Phường Dịch Vọng Hậu,Đường Đặng Thùy Trâm,60.0,16000.0,,
245,06/12/2022,nan,5.0,6.0,Sổ đỏ/ Sổ hồng,nan,7 tầng,5.0,15 m,Hà Nội,Hai Bà Trưng,Phường Bùi Thị Xuân,Đường Triệu Việt Vương,62.0,42000.0,,
247,06/12/2022,nan,2.0,nan,Sổ đỏ,nan,1 tầng,5.2,15 m,Hà Nội,Hai Bà Trưng,Phường Phố Huế,Đường Nguyễn Công Trứ,114.0,42000.0,,
246,06/12/2022,E,5.0,4.0,Sổ đỏ/ Sổ hồng,Nội thất đầy đủ đẹp.,4 tầng,15.0,14 m,Hà Nội,Long Biên,Phường Phúc Lợi,Đường Hoa Lan 5,225.0,60000.0,,
248,06/12/2022,nan,4.0,4.0,Sổ đỏ,nan,5 tầng,nan,nan,Hà Nội,Cầu Giấy,Phường Dịch Vọng Hậu,Đường Trần Thái Tông,40.0,19800.0,21.0355095,105.7891451
249,06/12/2022,nan,2.0,2.0,Sổ đỏ/ Sổ hồng,nan,3 tầng,5.0,nan,Hà Nội,Hai Bà Trưng,Phường Minh Khai,Đường Minh Khai,47.0,16500.0,20.9957496,105.8517179
250,06/12/2022,E,nan,nan,Sổ đỏ/ Sổ hồng,nan,2 tầng,6.0,nan,Hà Nội.,Nam Từ Liêm,Phường Tây Mỗ,nan,96.0,9500.0,21.0096762,105.7445572
251,06/12/2022,W,5.0,5.0,Sổ đỏ/ Sổ hồng.,nan,5 tầng,nan,nan,Hà Nội,Nam Từ Liêm,Phường Phương Canh,Đường Tu Hoàng,40.0,6150.0,,
252,06/12/2022,nan,5.0,6.0,nan,nan,6 tầng,nan,nan,Hà Nội,Cầu Giấy,Phường Dịch Vọng Hậu,Phố Trần Quốc Hoàn,30.0,17200.0,21.0417055,105.7855986
253,06/12/2022,nan,4.0,5.0,Sổ đỏ/ Sổ hồng,nan,6 tầng,4.5,20 m,Hà Nội,Đống Đa,Phường Trung Phụng,Đường Trung Phụng,50.0,25000.0,21.0146222,105.840705
254,06/12/2022,W,4.0,3.0,Sổ đỏ/ Sổ hồng,nan,4 tầng,4.0,3 m,Hà Nội,Hoài Đức,Xã Vân Canh,Đường 422,45.0,3400.0,21.0367458,105.7270026
255,06/12/2022,nan,4.0,nan,Sổ phân lô,nan,5 tầng,4.0,nan,Hà Nội,Cầu Giấy,Phường Dịch Vọng Hậu,Phố Phan Văn Trường,45.0,14000.0,21.0378798,105.7859926
256,06/12/2022,nan,4.0,4.0,Sổ đỏ/ Sổ hồng.,nan,5 tầng,nan,nan,Hà Nội,Nam Từ Liêm,Phường Xuân Phương,Đường Xuân Phương,30.0,3150.0,21.0283009,105.7406946
257,06/12/2022,nan,5.0,nan,nan,nan,5 tầng,6.3,nan,Hà Nội,Cầu Giấy,Phường Dịch Vọng Hậu,Phố Trần Quốc Hoàn,54.0,15500.0,21.0417055,105.7855986
258,03/12/2022,nan,5.0,4.0,nan,Đầy đủ ,4 tầng,10.0,15 m,Hà Nội,Cầu Giấy,Phường Dịch Vọng,Đường Trương Công Giai,200.0,45000.0,,
259,06/12/2022,nan,4.0,3.0,Sổ đỏ/ Sổ hồng,nan,4 tầng,3.0,3 m,Hà Nội,Thanh Xuân,Phường Khương Đình,nan,27.0,2700.0,20.9899852,105.8197278
260,06/12/2022,nan,4.0,4.0,Sổ đỏ chính chủ,"Nội thất cao cấp, nhập khẩu.",7 tầng,nan,nan,Hà Nội,Cầu Giấy,Phường Yên Hòa,Đường Nguyễn Khang,35.0,6500.0,21.0203224,105.7998843
261,06/12/2022,nan,4.0,nan,Sổ đỏ/ Sổ hồng,Đầy đủ,5 tầng,4.5,10 m,Hà Nội,Hà Đông,Phường Hà Cầu,Đường Ngô Thì Nhậm,50.0,7600.0,,
262,06/12/2022,nan,6.0,8.0,Sổ đỏ/ Sổ hồng.,nan,7 tầng,4.3,8 m,Hà Nội,Đống Đa,Phường Ô Chợ Dừa,Đường Trần Quang Diệu,76.0,19500.0,21.0170234,105.8258523
263,06/12/2022,nan,5.0,5.0,Sổ đỏ/ Sổ hồng,Đầy đủ,4 tầng,10.0,12 m,Hà Nội,Hà Đông,Phường La Khê,Đường Tố Hữu,156.0,24000.0,,
264,06/12/2022,W,4.0,4.0,Sổ đỏ,nan,5 tầng,6.0,15 m,Hà Nội,Tây Hồ,Phường Phú Thượng,nan,96.24,28000.0,21.0869773,105.8206363
265,06/12/2022,nan,5.0,6.0,nan,Cơ bản.,5 tầng,4.5,8 m,Hà Nội,Hai Bà Trưng,Phường Minh Khai,Đường Minh Khai,66.0,12600.0,20.9957496,105.8517179
266,25/11/2022,nan,nan,nan,nan,nan,9 tầng,nan,nan,Hà Nội,Thanh Xuân,Phường Khương Trung,Đường Hoàng Văn Thái,155.0,48000.0,,
267,27/11/2022,S,3.0,nan,Sổ đỏ/ Sổ hồng,nan,5 tầng,nan,nan,Hà Nội,Ba Đình,Phường Ngọc Hà,Đường Ngọc Hà,32.0,5500.0,21.0306261,105.8024741
268,25/11/2022,nan,26.0,nan,nan,Full nội thất.,8 tầng,nan,nan,Hà Nội,Cầu Giấy,Phường Dịch Vọng Hậu,Đường Xuân Thủy,130.0,20000.0,21.0365402,105.7848143
269,27/11/2022,nan,4.0,nan,Sổ đỏ/ Sổ hồng,nan,4 tầng,nan,nan,Hà Nội,Ba Đình,Phường Ngọc Khánh,Phố Kim Mã,70.0,12800.0,21.0297652,105.809434
270,27/11/2022,nan,9.0,nan,nan,nan,5 tầng,nan,3 m,Hà Nội,Cầu Giấy,Phường Mai Dịch,Đường Hồ Tùng Mậu,46.0,5900.0,21.0382232,105.7719404
272,06/12/2022,nan,8.0,8.0,nan,nan,9 tầng,9.1,12 m,Hà Nội,Thanh Xuân,Phường Thanh Xuân Trung,Đường Khuất Duy Tiến,105.0,56000.0,20.997077,105.7990333
271,24/11/2022,nan,17.0,17.0,Sổ đỏ/ Sổ hồng,Cơ bản,7 tầng,4.2,3 m,Hà Nội,Đống Đa,Phường Láng Thượng,Đường Láng,70.0,10500.0,21.0219094,105.800841
273,06/12/2022,E,3.0,4.0,Sổ đỏ/ Sổ hồng,nan,5 tầng,nan,4 m,Hà Nội,Hoàng Mai,Phường Lĩnh Nam,Đường Nam Dư,34.0,3200.0,,
274,06/12/2022,W,3.0,5.0,nan,nan,4 tầng,8.3,20 m,Hà Nội,Gia Lâm,Xã Dương Xá,Đường San Hô,150.0,17000.0,,
275,06/12/2022,nan,6.0,6.0,Sổ đỏ/ Sổ hồng,nan,6 tầng,4.1,8 m,Hà Nội,Đống Đa,Phường Quang Trung,Phố Chùa Bộc,52.0,30000.0,21.0077332,105.8280279
276,02/12/2022,nan,6.0,6.0,Sổ đỏ/ Sổ hồng,nan,8 tầng,6.8,nan,Hà Nội,Đống Đa,Phường Trung Liệt,Đường Trần Quang Diệu,116.0,65000.0,,
278,06/12/2022,nan,6.0,5.0,Sổ đỏ/ Sổ hồng,nan,5 tầng,4.5,13 m,Hà Nội,Cầu Giấy,Phường Trung Hòa,Đường Nguyễn Thị Định,80.0,24500.0,,
279,06/12/2022,nan,nan,nan,Sổ Đỏ Lâu Dài,Xây Thô Hoàn Thiện Mặt Ngoài,5 tầng,nan,nan,Hà Nội,Thanh Trì,Xã Tân Triều,Đường Nguyễn Xiển,125.0,20000.0,,
277,06/12/2022,nan,3.0,4.0,"Sổ đỏ nở hậu, giao dịch ngay.",nan,5 tầng,3.5,nan,Hà Nội,Đống Đa,Phường Thịnh Quang,Đường Thịnh Quang,39.0,3450.0,21.0077683,105.8153226
280,06/12/2022,N,3.0,3.0,nan,nan,4 tầng,5.0,4 m,Hà Nội,Tây Hồ,Phường Xuân La,Đường Võ Chí Công,135.0,35000.0,21.0702199,105.8090596
281,06/12/2022,nan,4.0,4.0,Sổ đỏ/ Sổ hồng,Đầy đủ,5 tầng,4.0,3 m,Hà Nội,Thanh Xuân,Phường Khương Mai,Đường Hoàng Văn Thái,42.0,5450.0,,
282,06/12/2022,E,6.0,4.0,Sổ đỏ/ Sổ hồng,Nội thất đầy đủ,6 tầng,3.2,3.5 m,Hà Nội,Ba Đình,Phường Liễu Giai,Đường Quần Ngựa,60.0,16500.0,,
284,06/12/2022,nan,5.0,5.0,Sổ đỏ/ Sổ hồng,Đầy đủ,5 tầng,6.0,6 m,Hà Nội,Tây Hồ,Phường Thụy Khuê,Đường Thụy Khuê,59.0,17700.0,21.0433663,105.8177621
285,05/12/2022,nan,3.0,5.0,Sổ đỏ/ Sổ hồng,Đầy đủ,6 tầng,nan,3 m,Hà Nội,Ba Đình,Phường Cống Vị,Đường Phan Kế Bính,36.0,4500.0,,
283,02/12/2022,nan,6.0,6.0,nan,nan,7 tầng,5.0,12 m,Hà Nội,Đống Đa,Phường Phương Liên,Phố Xã Đàn,50.0,37000.0,21.0097766,105.8379292
286,05/12/2022,nan,5.0,5.0,Sổ đỏ/ Sổ hồng,Đầy đủ,5 tầng,nan,nan,Hà Nội,Cầu Giấy,Phường Yên Hòa,Đường Yên Hòa,50.0,7000.0,21.0145393,105.801834
287,02/12/2022,nan,7.0,7.0,nan,nan,5 tầng,3.3,2.5 m,Hà Nội,Thanh Xuân,Phường Kim Giang,Đường Kim Giang,50.0,5250.0,20.9826512,105.8157127
289,01/12/2022,nan,3.0,nan,Sổ đỏ,nan,4 tầng,4.0,nan,Hà Nội,Thanh Xuân,Phường Thanh Xuân Bắc,Đường Khương Đình,45.0,6600.0,,
288,02/12/2022,nan,11.0,7.0,Sổ đỏ.,nan,7 tầng,4.3,nan,Hà Nội,Đống Đa,Phường Ô Chợ Dừa,Đường Đê La Thành,50.0,9900.0,,
290,06/12/2022,nan,3.0,4.0,Sổ chính chủ nở hậu,nan,5 tầng,3.9,2 m,Hà Nội,Đống Đa,Phường Láng Thượng,Phố Chùa Láng,39.0,4600.0,21.0230652,105.8080838
291,06/12/2022,nan,8.0,8.0,Sổ đỏ vuông vắn,Cơ bản,8 tầng,6.0,10 m,Hà Nội,Đống Đa,Phường Trung Liệt,Đường Võ Văn Dũng,80.0,46500.0,,
293,05/12/2022,nan,4.0,4.0,Sổ đỏ chính chủ.,Nội thất đầy đủ.,4 tầng,nan,6 m,Hà Nội,Thanh Xuân,Phường Nhân Chính,Phố Ngụy Như Kon Tum,58.5,10800.0,21.0018072,105.8046864
292,01/12/2022,nan,5.0,4.0,Sổ đỏ/ Sổ hồng,nan,5 tầng,nan,nan,Hà Nội,Thanh Xuân,Phường Khương Trung,Đường Nguyễn Ngọc Nại,120.5,17500.0,,
294,06/12/2022,nan,4.0,5.0,Sổ đỏ chính chủ,Cơ bản,5 tầng,5.0,8 m,Hà Nội,Cầu Giấy,Phường Trung Hòa,Đường Trung Yên 11,78.0,18300.0,,
295,06/12/2022,nan,3.0,4.0,"Sổ đỏ nở hậu, giao dịch ngay.",nan,5 tầng,3.9,nan,Hà Nội,Đống Đa,Phường Láng Thượng,Phố Pháo Đài Láng,35.0,4550.0,21.0182235,105.8039304
296,06/12/2022,nan,nan,nan,nan,nan,4 tầng,7.15,nan,Hà Nội,Bắc Từ Liêm,Phường Đông Ngạc,Đường Phạm Văn Đồng,60.0,7150.0,,
297,06/12/2022,E,5.0,5.0,nan,nan,5 tầng,4.2,10.5 m,Hà Nội,Cầu Giấy,Phường Trung Hòa,Đường Nguyễn Thị Định,62.0,16800.0,,
298,05/12/2022,nan,nan,nan,nan,nan,5 tầng,nan,nan,Hà Nội,Thanh Trì,Xã Tân Triều,Đường Nguyễn Xiển,93.0,18600.0,,
299,06/12/2022,S,5.0,5.0,nan,Nội thất cơ bản.,5 tầng,4.0,nan,Hà Nội,Thanh Xuân,Phường Nhân Chính,Phố Nhân Hòa,65.0,19600.0,21.00209,105.808605
300,06/12/2022,nan,3.0,3.0,Sổ đỏ/ Sổ hồng,nan,4 tầng,nan,2.5 m,Hà Nội,Cầu Giấy,Phường Mai Dịch,Đường Hồ Tùng Mậu,27.0,2700.0,21.0382232,105.7719404
301,06/12/2022,nan,3.0,3.0,Sổ đỏ/ Sổ hồng,Full,3 tầng,5.0,5 m,Hà Nội,Hà Đông,Phường Kiến Hưng,Đường Xa La,63.0,7600.0,,
302,06/12/2022,nan,4.0,4.0,Sổ đỏ,nan,5 tầng,4.0,4 m,Hà Nội,Hà Đông,Phường Nguyễn Trãi,Đường Tô Hiệu,46.0,7600.0,20.9669178,105.7789123
303,02/12/2022,nan,nan,nan,Sổ đỏ.,nan,4 tầng,nan,13.5 m,Hà Nội,Hoài Đức,Xã An Thượng,Đường Lê Trọng Tấn,210.0,23000.0,,
305,06/12/2022,nan,5.0,3.0,Sổ đỏ,Sang trọng,4 tầng,6.5,3 m,Hà Nội,Thanh Trì,Xã Thanh Liệt,Đường Kim Giang,56.0,4500.0,,
306,06/12/2022,W,4.0,4.0,Sổ đỏ chính chủ.,Siêu đẹp.,5 tầng,4.0,3 m,Hà Nội,Hoàng Mai,Phường Lĩnh Nam,Đường Lĩnh Nam,41.0,3000.0,20.979603,105.892813
304,06/12/2022,nan,3.0,4.0,Sổ đỏ vuông đẹp!,Đẹp,4 tầng,9.0,16 m,Hà Nội,Đống Đa,Phường Nam Đồng,Đường Hồ Đắc Di,60.0,15500.0,,
307,06/12/2022,nan,13.0,nan,Sổ đỏ/ Sổ hồng,nan,7 tầng,4.0,nan,Hà Nội,Bắc Từ Liêm,Phường Cổ Nhuế 2,Đường Phạm Văn Đồng,50.0,10000.0,21.0590263,105.7828873
309,06/12/2022,nan,3.0,3.0,Sổ đỏ,Đầy đủ.,6 tầng,4.0,2 m,Hà Nội,Thanh Trì,Xã Thanh Liệt,Đường Kim Giang,38.0,3750.0,,
308,06/12/2022,nan,5.0,5.0,Sổ đỏ/ Sổ hồng,Đầy đủ,6 tầng,5.1,nan,Hà Nội,Đống Đa,Phường Thổ Quan,Phố Khâm Thiên,47.1,7500.0,21.0189941,105.8303516
310,06/12/2022,W,6.0,6.0,nan,nan,3 tầng,9.0,11.5 m,Hà Nội,Hà Đông,Phường Dương Nội,Đường Tố Hữu,198.0,28500.0,,
312,06/12/2022,E,5.0,nan,Sổ đỏ/ Sổ hồng,nan,3 tầng,nan,nan,Hà Nội,Thanh Xuân,Phường Khương Trung,Đường Khương Trung,66.0,6500.0,21.001638,105.8184796
313,06/12/2022,S,4.0,3.0,Sổ đỏ chính chủ,Đầy đủ,4 tầng,3.8,3 m,Hà Nội,Hoàng Mai,Phường Đại Kim,Đường Đại Từ,32.0,4200.0,20.975562850000003,105.8114342332681
311,06/12/2022,nan,4.0,nan,nan,nan,4 tầng,4.0,nan,Hà Nội,Hai Bà Trưng,Phường Đồng Tâm,Phố Đại La,41.0,3800.0,20.9975161,105.8429054
314,01/12/2022,W,5.0,5.0,Hợp đồng mua bán,nan,4 tầng,9.0,27 m,Hà Nội,Hà Đông,Phường La Khê,Đường Tố Hữu,202.0,38000.0,,
315,06/12/2022,E,9.0,5.0,Sổ đỏ/ Sổ hồng.,Hoàn thiện.,5 tầng,6.0,12 m,Hà Nội,Gia Lâm,Thị trấn Trâu Quỳ,Đường Nguyễn Mậu Tài,75.0,7500.0,,
316,06/12/2022,E,5.0,5.0,Hợp đồng mua bán,nan,4 tầng,9.0,12 m,Hà Nội,Hà Đông,Phường Dương Nội,Đường Tố Hữu,180.0,23000.0,,
317,06/12/2022,nan,4.0,3.0,Sổ đỏ/ Sổ hồng.,Đầy đủ.,4 tầng,nan,nan,Hà Nội.,Nam Từ Liêm,Phường Mễ Trì,Đường Mễ Trì,52.0,5800.0,21.0111985,105.773048
318,23/11/2022,nan,3.0,3.0,Sổ đỏ/ Sổ hồng,Full nội thất,4 tầng,nan,2.5 m,Hà Nội,Đống Đa,Phường Quốc Tử Giám,Phố Quốc Tử Giám,20.0,1750.0,21.0257246,105.8319624
319,27/11/2022,nan,5.0,5.0,nan,nan,5 tầng,nan,nan,Hà Nội,Hà Đông,Phường Nguyễn Trãi,Đường Lê Lợi,105.0,16000.0,20.9680595,105.780193
321,06/12/2022,nan,nan,nan,Sổ đỏ/ Sổ hồng.,nan,5 tầng,nan,nan,Hà Nội,Đống Đa,Phường Nam Đồng,Phố Xã Đàn,186.0,63000.0,21.0176921,105.830155
322,06/12/2022,nan,nan,nan,Sổ đỏ,nan,22 tầng,200.0,nan,Hà Nội,Cầu Giấy,Phường Yên Hòa,Đường Dương Đình Nghệ,4500.0,1950000.0,21.0219948,105.7885258
320,19/11/2022,nan,3.0,3.0,nan,Nội thất đầy đủ,1 tầng,9.0,3 m,Hà Nội,Tây Hồ,Phường Yên Phụ,Đường An Dương,320.0,12700.0,21.0549446,105.84033547686396
323,06/12/2022,nan,3.0,4.0,Sổ đỏ/ Sổ hồng,Đầy đủ,5 tầng,nan,nan,Hà Nội,Đống Đa,Phường Láng Thượng,Phố Chùa Láng,45.0,4900.0,21.0230652,105.8080838
324,06/12/2022,E,3.0,4.0,Sổ đỏ/ Sổ hồng,Cơ bản,6 tầng,nan,5 m,Hà Nội,Long Biên,Phường Sài Đồng,Đường Vũ Xuân Thiều,45.0,6000.0,,
325,06/12/2022,W,5.0,5.0,Sổ đỏ,nan,3 tầng,7.0,12 m,Hà Nội,Hà Đông,Phường La Khê,Đường Lê Trọng Tấn,154.0,34000.0,20.9670155,105.7564787
326,06/12/2022,W,3.0,3.0,nan,nan,4 tầng,nan,nan,Hà Nội,Hoài Đức,Xã Kim Chung,Đường Đại Tự,30.0,2150.0,21.0502567,105.7136204
327,06/12/2022,nan,3.0,nan,Sổ đỏ/ Sổ hồng,Cơ bản.,4 tầng,4.0,6 m,Hà Nội,Long Biên,Phường Sài Đồng,Phố Sài Đồng,65.0,7250.0,21.0328785,105.9092302
328,06/12/2022,nan,6.0,5.0,Sổ đỏ/ Sổ hồng,Đầy đủ,5 tầng,4.2,2.5 m,Hà Nội,Bắc Từ Liêm,Phường Phú Diễn,Đường Phú Diễn,45.0,4200.0,21.0443694,105.7620895
329,06/12/2022,W,3.0,3.0,Sổ đỏ.,nan,3 tầng,3.0,nan,Hà Nội,Hoàng Mai,Phường Hoàng Văn Thụ,Đường Minh Khai,60.0,3960.0,20.9933268,105.8526027
330,06/12/2022,E,4.0,5.0,Sổ đỏ/ Sổ hồng,nan,5 tầng,5.0,6 m,Hà Nội,Đống Đa,Phường Trung Liệt,Phố Thái Hà,70.0,20000.0,21.0106446,105.8223202
331,01/12/2022,nan,6.0,4.0,Sổ đỏ/ Sổ hồng.,Cơ bản.,4 tầng,4.2,20 m,Hà Nội,Long Biên,Phường Thạch Bàn,Đường Cổ Linh,64.0,17800.0,21.0230047,105.9053622
332,06/12/2022,nan,6.0,nan,Sổ đỏ chính chủ,"Mới, đẹp hiện đại",5 tầng,4.2,nan,Hà Nội,Ba Đình,Phường Liễu Giai,Đường Phan Kế Bính,50.0,7400.0,,
333,02/12/2022,nan,4.0,nan,Sổ đỏ/ Sổ hồng,nan,4 tầng,nan,nan,Hà Nội,Cầu Giấy,Phường Mai Dịch,Đường Phạm Văn Đồng,45.0,14400.0,21.0464801,105.7811332
334,06/12/2022,nan,3.0,4.0,Sổ đỏ/ Sổ hồng,nan,5 tầng,3.9,nan,Hà Nội,Đống Đa,Phường Láng Thượng,Phố Pháo Đài Láng,35.0,4600.0,21.0182235,105.8039304
336,06/12/2022,nan,nan,nan,Sổ đỏ/ Sổ hồng.,nan,5 tầng,nan,nan,Hà Nội.,Nam Từ Liêm,Phường Mỹ Đình 1,Đường Mỹ Đình,41.5,6000.0,21.0225553,105.7745578
335,06/12/2022,nan,4.0,4.0,Sổ đỏ/ Sổ hồng,"Để lại toàn bộ nội thất như điều hòa, tủ bếp, bàn ghế.",5 tầng,4.0,3 m,Hà Nội,Đống Đa,Phường Ngã Tư Sở,Đường Trường Chinh,40.0,4300.0,21.0031375,105.8200335
338,06/12/2022,W,6.0,5.0,Sổ đỏ/ Sổ hồng,nan,5 tầng,5.0,5 m,Hà Nội,Đống Đa,Phường Thịnh Quang,Đường Yên Lãng,60.0,11400.0,,
337,06/12/2022,nan,4.0,nan,nan,nan,5 tầng,nan,nan,Hà Nội,Hai Bà Trưng,Phường Đồng Tâm,Phố Bạch Mai,39.0,3150.0,,
340,06/12/2022,nan,4.0,4.0,Sổ đỏ/ Sổ hồng.,Đầy đủ.,5 tầng,5.0,10 m,Hà Nội,Hoàng Mai,Phường Hoàng Văn Thụ,Đường Nguyễn Tam Trinh,120.0,21000.0,,
339,06/12/2022,nan,6.0,4.0,Sổ đỏ/ Sổ hồng,nan,5 tầng,4.1,5 m,Hà Nội,Đống Đa,Phường Láng Hạ,Đường Trần Quang Diệu,82.0,19500.0,,
341,06/12/2022,nan,nan,nan,Sổ đỏ/ Sổ hồng,nan,4 tầng,nan,nan,Hà Nội,Nam Từ Liêm,Phường Mỹ Đình 1,Đường Đình Thôn,52.0,5650.0,21.0185065,105.7770179
342,06/12/2022,nan,1.0,1.0,Sổ đỏ vuông vắn,nan,1 tầng,4.5,10 m,Hà Nội,Hoàng Mai,Phường Lĩnh Nam,Đường Nam Dư,78.0,7600.0,,
343,30/11/2022,nan,2.0,1.0,Sổ đỏ,nan,1 tầng,nan,4 m,Hà Nội,Hà Đông,Phường Nguyễn Trãi,Phố Bà Triệu,60.0,4700.0,20.9687843,105.7815336
344,06/12/2022,nan,5.0,nan,Có sổ.,nan,5 tầng,nan,10 m,Hà Nội,Thanh Trì,Xã Tân Triều,Đường Yên Xá,60.0,10000.0,,
345,06/12/2022,nan,4.0,3.0,Sổ đỏ/ Sổ hồng,Đầy đủ,4 tầng,7.0,nan,Hà Nội,Ba Đình,Phường Liễu Giai,Phố Liễu Giai,100.0,24500.0,21.0357243,105.8144585
346,03/12/2022,W,3.0,3.0,Sổ đỏ/ Sổ hồng,Đầy đủ.,4 tầng,7.5,nan,Hà Nội,Gia Lâm,Xã Dương Xá,nan,90.0,16500.0,21.0022646,105.9643263
347,06/12/2022,W,nan,nan,Sổ đỏ/ Sổ hồng,nan,4 tầng,6.0,13 m,Hà Nội,Gia Lâm,Thị trấn Trâu Quỳ,nan,90.0,14500.0,21.0174494,105.93894750834694
348,06/12/2022,E,4.0,4.0,Sổ đỏ/ Sổ hồng,Đầy đủ nội thất,4 tầng,nan,nan,Hà Nội,Tây Hồ,Phường Nhật Tân,Đường Lạc Long Quân,120.0,20000.0,21.0792007,105.8163861
349,06/12/2022,nan,nan,nan,Sổ đỏ/ Sổ hồng.,nan,4 tầng,4.5,nan,Hà Nội,Đống Đa,Phường Ô Chợ Dừa,Phố Hào Nam,63.0,23800.0,21.0260273,105.8275844
350,06/12/2022,nan,nan,nan,Hợp đồng mua bán,nan,5 tầng,nan,nan,Hà Nội,Hoài Đức,Xã Di Trạch,Đường Quốc lộ 32,90.0,7200.0,,
351,06/12/2022,nan,3.0,5.0,Sổ đỏ vuông vắn,nan,6 tầng,4.0,4 m,Hà Nội,Hoàn Kiếm,Phường Hàng Bông,Đường Ngõ Huyện,25.0,18000.0,,
352,28/11/2022,nan,3.0,5.0,Sổ đỏ/ Sổ hồng.,Đầy đủ ,5 tầng,4.2,6 m,Hà Nội,Tây Hồ,Phường Xuân La,Đường Lạc Long Quân,42.0,7495.0,21.0634426,105.8095413
353,06/12/2022,nan,4.0,3.0,Sổ đỏ/ Sổ hồng.,nan,4 tầng,nan,10 m,Hà Nội,Hoàng Mai,Phường Hoàng Văn Thụ,Đường Lương Khánh Thiện,65.0,10800.0,,
354,06/12/2022,nan,nan,nan,nan,nan,4 tầng,nan,nan,Hà Nội,Hoàng Mai,Phường Đại Kim,Đường Đại Từ,45.0,6000.0,20.975562850000003,105.8114342332681
355,06/12/2022,W,5.0,4.0,Sổ đỏ/ Sổ hồng,Hoàn thiện chủ đầu tư,4 tầng,12.0,9 m,Hà Nội,Hà Đông,Phường La Khê,Đường Lê Trọng Tấn,216.0,46500.0,20.9670155,105.7564787
356,06/12/2022,nan,4.0,6.0,Sổ đỏ/ Sổ hồng.,Đầy đủ.,7 tầng,nan,nan,Hà Nội.,Nam Từ Liêm,Phường Mễ Trì,Đường Mễ Trì,36.0,5200.0,21.0111985,105.773048
357,06/12/2022,nan,nan,nan,Sổ đỏ/ Sổ hồng,nan,5 tầng,4.2,nan,Hà Nội,Cầu Giấy,Phường Quan Hoa,Đường Cầu Giấy,80.0,15000.0,21.0319877,105.7994621
358,06/12/2022,nan,nan,nan,Sổ đỏ/ Sổ hồng,nan,5 tầng,4.5,nan,Hà Nội,Cầu Giấy,Phường Yên Hòa,Phố Trung Kính,85.0,16900.0,21.0212449,105.791192
359,28/11/2022,nan,3.0,4.0,Sổ đỏ/ Sổ hồng,Đầy đủ,5 tầng,nan,nan,Hà Nội,Ba Đình,Phường Cống Vị,Đường Đội Cấn,33.0,4300.0,,
360,06/12/2022,nan,4.0,3.0,Sổ đỏ/ Sổ hồng,Đầy đủ,5 tầng,5.0,21 m,Hà Nội,Hà Đông,Phường Phú La,Đường Lê Trọng Tấn,70.0,11200.0,,
361,06/12/2022,nan,2.0,2.0,Sổ đỏ/ Sổ hồng,Cơ bản,1 tầng,7.5,5 m,Hà Nội,Cầu Giấy,Phường Nghĩa Tân,Đường Tô Hiệu,90.0,4200.0,,
362,02/12/2022,nan,6.0,6.0,nan,nan,6 tầng,4.0,4 m,Hà Nội,Đống Đa,Phường Láng Hạ,Phố Mai Anh Tuấn,65.0,18500.0,,
363,06/12/2022,nan,5.0,5.0,nan,nan,4 tầng,nan,nan,Hà Nội,Long Biên,Phường Sài Đồng,Phố Sài Đồng,240.0,34000.0,21.0328785,105.9092302
364,06/12/2022,nan,6.0,6.0,Sổ đỏ/ Sổ hồng,"Gỗ Lim, nội thất hiện đại.",5 tầng,4.5,18 m,Hà Nội,Cầu Giấy,Phường Nghĩa Đô,Đường Nguyễn Văn Huyên,65.0,21000.0,21.0429957,105.7975313
365,06/12/2022,nan,4.0,3.0,Sổ đỏ/ Sổ hồng,nan,4 tầng,4.5,3 m,Hà Nội,Thanh Xuân,Phường Nhân Chính,Đường Nguyễn Trãi,65.0,6200.0,,
366,06/12/2022,nan,nan,nan,nan,nan,9 tầng,7.0,nan,Hà Nội,Đống Đa,Phường Ô Chợ Dừa,Phố Xã Đàn,147.0,125000.0,,
367,02/12/2022,nan,3.0,4.0,Sổ đỏ vuông vắn chính chủ.,nan,4 tầng,4.0,5 m,Hà Nội,Hoàng Mai,Phường Vĩnh Hưng,Phố Thanh Đàm,35.0,3150.0,,
368,02/12/2022,nan,8.0,8.0,Sổ đẹp chuẩn,nan,8 tầng,5.7,20 m,Hà Nội,Thanh Xuân,Phường Khương Mai,Đường Lê Trọng Tấn,190.0,65000.0,,
369,02/12/2022,nan,4.0,4.0,Sổ đỏ/ Sổ hồng,nan,4 tầng,4.5,12 m,Hà Nội,Hai Bà Trưng,Phường Thanh Lương,Phố Lạc Trung,62.0,18000.0,,
370,06/12/2022,nan,2.0,1.0,Sổ đỏ/ Sổ hồng,nan,1 tầng,14.0,15 m,Hà Nội,Long Biên,Phường Cự Khối,Đường Thạch Bàn,490.0,42000.0,21.0126773,105.9048573
371,02/12/2022,nan,2.0,2.0,Có giấy tờ nộp thuế đầy đủ.,nan,2 tầng,4.0,2.5 m,Hà Nội,Hoàng Mai,Phường Thịnh Liệt,Đường Nguyễn Chính,27.0,1400.0,,
372,30/11/2022,nan,4.0,2.0,nan,nan,4 tầng,nan,nan,Hà Nội,Bắc Từ Liêm,Phường Đông Ngạc,Đường Đông Ngạc,45.0,1900.0,21.0923042,105.78167
373,06/12/2022,nan,nan,nan,Sổ đỏ/ Sổ hồng,nan,7 tầng,6.0,nan,Hà Nội,Ba Đình,Phường Đội Cấn,Đường Đội Cấn,160.0,70000.0,21.0358189,105.8348752
374,25/11/2022,nan,4.0,4.0,Sổ đỏ/ Sổ hồng,Nội thất đầy đủ.,4 tầng,4.2,10 m,Hà Nội,Nam Từ Liêm,Phường Mỹ Đình 2,Đường Mỹ Đình,40.0,3950.0,21.0272998,105.7740252
375,25/11/2022,nan,6.0,5.0,Sổ đỏ/ Sổ hồng,Nội thất cao cấp,5 tầng,3.5,3 m,Hà Nội,Nam Từ Liêm,Phường Mỹ Đình 2,Đường Lê Đức Thọ,40.0,4200.0,21.0252949,105.7676833
376,22/11/2022,nan,3.0,4.0,Sổ đỏ/ Sổ hồng,Nội thất cao cấp.,5 tầng,3.9,2.5 m,Hà Nội,Bắc Từ Liêm,Phường Phú Diễn,Đường Phú Diễn,35.0,3200.0,21.0443694,105.7620895
377,16/11/2022,nan,6.0,6.0,Sổ đỏ lâu dài,Bàn giao nguyên bản chủ đầu tư,5 tầng,5.0,nan,Hà Nội,Hà Đông,Phường Kiến Hưng,Đường Phúc La,67.5,9500.0,,
378,25/11/2022,nan,nan,nan,nan,nan,8 tầng,6.0,nan,Hà Nội,Cầu Giấy,Phường Nghĩa Tân,Đường Tô Hiệu,90.0,43000.0,,
379,23/11/2022,nan,9.0,10.0,Sổ đỏ/ Sổ hồng,Tiện nghi,5 tầng,3.7,20 m,Hà Nội,Thanh Xuân,Phường Khương Trung,Đường Bùi Xương Trạch,56.0,7200.0,,
380,23/11/2022,nan,3.0,2.0,Sổ đỏ/ Sổ hồng.,nan,5 tầng,3.0,3 m,Hà Nội,Đống Đa,Phường Trung Liệt,Đường Tây Sơn,19.0,1950.0,,
381,06/12/2022,nan,nan,nan,nan,nan,10 tầng,4.0,nan,Hà Nội,Hoàn Kiếm,Phường Hàng Bông,Phố Hàng Bông,109.0,140000.0,21.0283222,105.8437768
383,06/12/2022,nan,6.0,4.0,Sổ đỏ/ Sổ hồng,Đầy đủ,3 tầng,10.0,15 m,Hà Nội,Hoàng Mai,Phường Hoàng Liệt,Đường Bằng A,200.0,42000.0,,
382,06/12/2022,nan,7.0,8.0,Sổ đỏ/ Sổ hồng,nan,5 tầng,6.2,nan,Hà Nội,Đống Đa,Phường Trung Phụng,Phố Khâm Thiên,82.0,6500.0,21.0186692,105.8378027
385,06/12/2022,W,nan,nan,nan,nan,5 tầng,nan,nan,Hà Nội,Hoài Đức,Xã Vân Canh,Đường 422B,35.0,3400.0,21.0357012,105.7315514
384,06/12/2022,E,nan,nan,Sổ đỏ/ Sổ hồng,Cơ bản,9 tầng,8.0,12 m,Hà Nội,Đống Đa,Phường Láng Hạ,Đường Nguyên Hồng,60.0,24500.0,,
386,06/12/2022,nan,4.0,4.0,Sổ đỏ/ Sổ hồng,nan,4 tầng,nan,nan,Hà Nội,Nam Từ Liêm,Phường Mễ Trì,Đường Đại lộ Thăng Long,114.0,23700.0,21.0042343,105.7815991
388,06/12/2022,nan,7.0,11.0,Sổ đỏ,nan,5 tầng,17.0,9 m,Hà Nội,Tây Hồ,Phường Xuân La,Đường Xuân Đỉnh,199.0,37500.0,21.0744868,105.7983409
387,06/12/2022,nan,nan,nan,Sổ đỏ/ Sổ hồng,nan,4 tầng,10.0,nan,Hà Nội,Hà Đông,Phường Mỗ Lao,Đường Nguyễn Văn Lộc,155.0,55000.0,,
389,06/12/2022,nan,4.0,5.0,Sổ đỏ,Đầy đủ,5 tầng,4.0,6 m,Hà Nội,Hà Đông,Phường Văn Quán,Đường Nguyễn Khuyến,30.0,5300.0,,
390,06/12/2022,S,3.0,4.0,Sổ đỏ,"Nội thất cao cấp: 3 điều hòa, 3 bình nước nóng, sàn gỗ ",5 tầng,5.0,10 m,Hà Nội,Hà Đông,Phường Yên Nghĩa,Đường Yên Lộ,30.0,4130.0,20.9296566,105.7158497
391,06/12/2022,nan,21.0,21.0,Sổ Đỏ.,nan,7 tầng,5.0,3.5 m,Hà Nội,Nam Từ Liêm,Phường Mỹ Đình 1,đường Mỹ Đình,56.9,11800.0,21.0225553,105.7745578
392,05/12/2022,nan,nan,nan,nan,nan,5 tầng,nan,nan,Hà Nội,Hai Bà Trưng,Phường Đồng Nhân,Phố Lò Đúc,32.0,4150.0,21.0135071,105.8576872
394,01/12/2022,nan,4.0,nan,Sổ đỏ/ Sổ hồng.,Full,3 tầng,nan,nan,Hà Nội,Đống Đa,Phường Hàng Bột,Phố Hào Nam,35.0,3800.0,,
393,06/12/2022,W,3.0,2.0,Sổ đỏ/ Sổ hồng,Đầy đủ,3 tầng,4.5,5 m,Hà Nội,Hà Đông,Phường Yên Nghĩa,Đường Quốc lộ 6,50.0,2380.0,20.9296566,105.7158497
396,06/12/2022,nan,4.0,5.0,nan,nan,4 tầng,nan,nan,Hà Nội,Cầu Giấy,Phường Dịch Vọng,Phố Trần Bình,105.0,24500.0,,
395,06/12/2022,E,3.0,4.0,Sổ đỏ/ Sổ hồng,Đầy đủ ,5 tầng,4.0,3 m,Hà Nội,Hà Đông,Phường Dương Nội,Đường La Dương,35.0,2850.0,20.9787479,105.7516377
397,06/12/2022,N,3.0,4.0,Ngõ 12,Đầy đủ,5 tầng,4.0,2.3 m,Hà Nội,Hà Đông,Phường La Khê,Đường Quang Trung,32.0,3150.0,20.9623678,105.764769
399,06/12/2022,nan,2.0,nan,Sổ đỏ/ Sổ hồng,nan,1 tầng,3.5,7 m,Hà Nội,Bắc Từ Liêm,Phường Đức Thắng,Đường Phố Viên,54.5,3924.0,,
398,06/12/2022,N,4.0,5.0,Sổ đỏ/ Sổ hồng,nan,5 tầng,5.0,5 m,Hà Nội,Ba Đình,Phường Cống Vị,Đường Văn Cao,70.0,16000.0,,
400,06/12/2022,nan,nan,nan,Sổ đỏ/ Sổ hồng,nan,4 tầng,nan,nan,Hà Nội,Nam Từ Liêm,Phường Mỹ Đình 2,đường Mỹ Đình,45.0,6000.0,21.0272998,105.7740252
401,04/12/2022,nan,6.0,nan,Sổ đỏ,Nội thất xịn xò.,7 tầng,9.0,8 m,Hà Nội,Cầu Giấy,Phường Yên Hòa,Đường Hoa Bằng,50.0,9000.0,,
402,06/12/2022,nan,5.0,nan,Sẵn sổ đỏ chính chủ,Cực đẹp,5 tầng,5.0,3 m,Hà Nội,Nam Từ Liêm,Phường Mỹ Đình 2,Đường Lê Quang Đạo,40.0,4500.0,,
403,30/11/2022,nan,6.0,3.0,nan,Cơ bản,4 tầng,nan,25 m,Hà Nội,Thanh Trì,Xã Tả Thanh Oai,Đường Phan Trọng Tuệ,145.0,14500.0,,
405,06/12/2022,nan,6.0,6.0,Sổ đỏ,nan,7 tầng,4.5,8 m,Hà Nội,Cầu Giấy,Phường Mai Dịch,Đường Nguyễn Khả Trạc,81.0,21500.0,,
406,06/12/2022,nan,nan,nan,nan,nan,4 tầng,3.5,8 m,Hà Nội,Cầu Giấy,Phường Trung Hòa,Đường Mạc Thái Tổ,48.0,9000.0,,
404,06/12/2022,nan,nan,nan,nan,nan,6 tầng,9.12,nan,Hà Nội,Đống Đa,Phường Láng Hạ,Phố Láng Hạ,38.0,6950.0,21.0122912,105.8122233
407,06/12/2022,nan,12.0,nan,Sổ đỏ/ Sổ hồng,nan,6 tầng,nan,nan,Hà Nội,Nam Từ Liêm,Phường Mỹ Đình 2,đường Mỹ Đình,62.0,6380.0,21.0272998,105.7740252
408,06/12/2022,W,5.0,6.0,Sổ đỏ/ Sổ hồng.,nan,3 tầng,9.0,21 m,Hà Nội.,Nam Từ Liêm,Phường Mễ Trì,Đường Lương Thế Vinh,96.0,46000.0,20.999397,105.784875
409,06/12/2022,nan,25.0,25.0,Sổ đỏ.,Đầy đủ.,7 tầng,nan,nan,Hà Nội,Cầu Giấy,Phường Dịch Vọng Hậu,Đường Xuân Thủy,90.0,15500.0,21.0365402,105.7848143
411,06/12/2022,nan,8.0,nan,Sổ đỏ/ Sổ hồng,nan,5 tầng,4.0,6 m,Hà Nội,Cầu Giấy,Phường Trung Hòa,Đường Trần Duy Hưng,55.0,12500.0,21.0091282,105.797841
410,04/12/2022,nan,nan,nan,nan,nan,3 tầng,nan,nan,Hà Nội,Ba Đình,Phường Giảng Võ,Phố Giảng Võ,116.0,28990.0,21.0235693,105.8197872
412,06/12/2022,E,3.0,3.0,nan,"Cửa chính 2 lớp, lớp ngoài khung thép hộp bằng Inox lớp trong gỗ Lim, cửa thông phòng gỗ Lim Nam Phi, cửa sổ nhôm Việt Pháp, hệ thống đèn chiếu sáng trần thạch cao, cầu thang đá Granit, gạch lát chống",4 tầng,4.5,5 m,Hà Nội,Hà Đông,Phường Dương Nội,Đường La Nội,35.0,3800.0,20.9787479,105.7516377
414,06/12/2022,W,4.0,4.0,Sổ đỏ,nan,4 tầng,nan,nan,Hà Nội,Hà Đông,Phường Yên Nghĩa,Phố Cầu Am,34.7,1950.0,,
413,04/12/2022,nan,nan,nan,nan,nan,5 tầng,8.0,nan,Hà Nội,Đống Đa,Phường Ngã Tư Sở,Đường Tây Sơn,75.0,27600.0,,
415,06/12/2022,nan,4.0,4.0,Sổ đỏ/ Sổ hồng,Cơ bản,3 tầng,5.2,3 m,Hà Nội,Ba Đình,Phường Ngọc Khánh,Phố Kim Mã,72.0,10000.0,21.0297652,105.809434
417,06/12/2022,nan,5.0,6.0,Sổ đỏ,nan,3 tầng,25.0,18 m,Hà Nội,Hà Đông,Phường Văn Quán,Đường Nguyễn Khuyến,230.0,71000.0,,
418,06/12/2022,nan,2.0,2.0,Sổ đỏ/ Sổ hồng.,nan,3 tầng,4.3,2 m,Hà Nội,Long Biên,Phường Phúc Lợi,Đường Phúc Lợi,45.0,2700.0,21.038209,105.930126
416,04/12/2022,nan,nan,nan,nan,nan,5 tầng,7.7,nan,Hà Nội,Đống Đa,Phường Láng Thượng,Đường Nguyễn Chí Thanh,75.0,28900.0,21.0154911,105.8047514
419,06/12/2022,nan,5.0,6.0,Sổ đỏ/ Sổ hồng,Đầy đủ,7 tầng,4.0,nan,Hà Nội,Ba Đình,Phường Đội Cấn,Đường Đội Cấn,34.0,11800.0,21.0358189,105.8348752
420,02/12/2022,nan,4.0,4.0,Sổ đỏ/ Sổ hồng,nan,2 tầng,6.0,48 m,Hà Nội,Long Biên,Phường Đức Giang,Đường Ngô Gia Tự,220.0,40000.0,21.0758942,105.9066192
421,04/12/2022,nan,nan,nan,nan,nan,8 tầng,nan,nan,Hà Nội,Đống Đa,Phường Kim Liên,Đường Phạm Ngọc Thạch,82.0,45000.0,,
422,06/12/2022,nan,3.0,4.0,Sổ đỏ/ Sổ hồng.,Đầy đủ,5 tầng,nan,nan,Hà Nội.,Nam Từ Liêm,Phường Mễ Trì,Đường Hồ Mễ Trì,39.0,3800.0,20.9984293,105.7893174
423,06/12/2022,nan,nan,nan,Nở hậu.,Đầy đủ nội thất,8 tầng,8.0,nan,Hà Nội,Cầu Giấy,Phường Dịch Vọng Hậu,Đường Cầu Giấy,57.0,11900.0,21.03882335,105.78192046095293
424,04/12/2022,nan,nan,nan,nan,nan,4 tầng,7.0,nan,Hà Nội,Đống Đa,Phường Ô Chợ Dừa,Phố Mai Anh Tuấn,80.0,28000.0,21.0191407,105.820736
426,06/12/2022,nan,nan,nan,Sổ đỏ/ Sổ hồng,nan,3 tầng,16.0,nan,Hà Nội,Hoàn Kiếm,Phường Hàng Trống,Phố Hàng Trống,1400.0,636000.0,21.0295866,105.8504062
425,06/12/2022,S,nan,nan,Sổ đỏ/ Sổ hồng,nan,3 tầng,12.0,40 m,Hà Nội,Đống Đa,Phường Ô Chợ Dừa,Đường Ô Chợ Dừa,180.0,115000.0,21.02392085,105.82280000684547
427,06/12/2022,nan,4.0,4.0,Sổ đỏ,nan,4 tầng,4.0,12 m,Hà Nội,Hà Đông,Phường Kiến Hưng,Đường Lê Trọng Tấn,50.0,6600.0,,
428,06/12/2022,nan,nan,nan,Sổ đỏ.,nan,2 tầng,5.1,nan,Hà Nội,Hoàn Kiếm,Phường Hàng Bông,Phố Hàng Bông,265.0,87000.0,21.0283222,105.8437768
429,06/12/2022,nan,4.0,4.0,Sổ đỏ/ Sổ hồng,Nội thất cao cấp,5 tầng,3.8,4 m,Hà Nội,Ba Đình,Phường Liễu Giai,Phố Vạn Phúc,40.0,7600.0,,
430,06/12/2022,nan,nan,nan,Sổ đỏ/ Sổ hồng,nan,2 tầng,7.3,nan,Hà Nội,Tây Hồ,Phường Quảng An,Phố Từ Hoa,160.0,136000.0,21.0616265,105.8308487
431,04/12/2022,nan,nan,nan,nan,nan,7 tầng,nan,nan,Hà Nội,Đống Đa,Phường Nam Đồng,Phố Xã Đàn,75.0,45990.0,21.0176921,105.830155
433,01/12/2022,nan,9.0,9.0,Sổ đỏ/ Sổ hồng.,Đầy đủ.,5 tầng,7.0,30 m,Hà Nội,Thanh Trì,Xã Tân Triều,Đường Nguyễn Xiển,100.0,25000.0,,
432,04/12/2022,nan,nan,nan,SĐCC,nan,5 tầng,nan,nan,Hà Nội,Đống Đa,Phường Nam Đồng,Đường Ô Chợ Dừa,66.0,35000.0,21.0270748,105.8274034
434,04/12/2022,nan,nan,nan,nan,nan,4 tầng,4.8,nan,Hà Nội,Đống Đa,Phường Trung Liệt,Phố Hoàng Cầu,55.0,26990.0,21.0163274,105.8219248
435,04/12/2022,nan,nan,nan,nan,nan,5 tầng,5.5,nan,Hà Nội,Đống Đa,Phường Ô Chợ Dừa,Đường Ô Chợ Dừa,62.0,34500.0,21.02392085,105.82280000684547
436,06/12/2022,nan,nan,nan,nan,nan,3 tầng,11.0,nan,Hà Nội,Long Biên,Phường Thượng Thanh,nan,426.0,10500.0,21.055968749999998,105.88449242832769
437,01/12/2022,nan,10.0,10.0,Hợp đồng mua bán.,nan,5 tầng,8.0,20 m,Hà Nội.,Nam Từ Liêm,Phường Mễ Trì,Đường Lê Quang Đạo,188.3,72000.0,21.0066181,105.7740116
438,05/12/2022,nan,nan,nan,nan,nan,8 tầng,nan,nan,Hà Nội,Đống Đa,Phường Ô Chợ Dừa,Phố Đông Các,80.0,24990.0,21.0180381,105.8290976
439,01/12/2022,nan,4.0,4.0,Sổ đỏ/ Sổ hồng,Nội thất toàn đồ gỗ xịn xò giá tiền tỷ.,3 tầng,11.0,12 m,Hà Nội,Long Biên,Phường Đức Giang,nan,209.0,33500.0,21.0646143,105.8977054
440,06/12/2022,nan,nan,nan,Sổ đỏ chính chủ,Chuẩn xịn,5 tầng,5.0,5 m,Hà Nội,Nam Từ Liêm,Phường Mễ Trì,Đường Mễ Trì Thượng,41.0,4800.0,,
441,06/12/2022,E,nan,nan,nan,nan,5 tầng,5.0,6 m,Hà Nội,Hoàng Mai,Phường Định Công,Đường Định Công,83.5,16700.0,20.9835666,105.8376092
443,01/12/2022,nan,6.0,6.0,Sổ đỏ/ Sổ hồng,Đầy đủ,5 tầng,7.0,30 m,Hà Nội,Thanh Xuân,Phường Hạ Đình,Đường Lương Thế Vinh,85.0,21250.0,,
442,05/12/2022,nan,nan,nan,nan,nan,3 tầng,3.8,nan,Hà Nội,Đống Đa,Phường Ô Chợ Dừa,Đường Ô Chợ Dừa,60.0,31500.0,21.02392085,105.82280000684547
444,06/12/2022,nan,4.0,3.0,Sổ đỏ/ Sổ hồng,nan,4 tầng,4.0,6 m,Hà Nội,Ba Đình,Phường Kim Mã,Đường Giang Văn Minh,47.0,6600.0,,
445,05/12/2022,nan,nan,nan,nan,nan,5 tầng,nan,nan,Hà Nội,Đống Đa,Phường Nam Đồng,Phố Xã Đàn,40.0,22000.0,21.0176921,105.830155
446,06/12/2022,nan,4.0,4.0,Sổ đỏ/ Sổ hồng,nan,5 tầng,nan,nan,Hà Nội,Cầu Giấy,Phường Yên Hòa,Đường Hoa Bằng,40.0,4800.0,,
447,05/12/2022,nan,nan,nan,Sổ đỏ chính chủ.,nan,9 tầng,7.0,nan,Hà Nội,Đống Đa,Phường Khâm Thiên,Phố Khâm Thiên,120.0,64900.00000000001,21.0188336,105.8408335
448,06/12/2022,nan,5.0,5.0,Sổ đỏ/ Sổ hồng,"Sàn gỗ, bậc cầu thang, tay vịn, cửa thông phòng bằng gỗ Lim nguyên khối. Thiết bị vệ sinh nhập khẩu cao cấp. Trần thạch cao kết hợp đèn led, điều hòa, lóng lạnh, rèm...",6 tầng,nan,nan,Hà Nội,Cầu Giấy,Phường Nghĩa Tân,Đường Hoàng Quốc Việt,50.0,12000.0,21.0460863,105.7926597
449,01/12/2022,W,3.0,3.0,Sổ đỏ/ Sổ hồng,"* Nội thất gồm có: Hệ thống cửa chính, cửa thông phòng, tay vịn cầu thang gỗ Lim Nam Phi, tủ bếp gỗ Sồi, trần thạch cao, hệ thống chiếu sáng đèn trang trí, thiết bị vệ sinh Inax cao cấp, điều hoà,....",4 tầng,3.3,2.5 m,Hà Nội,Hà Đông,Phường Phú Lãm,Đường Huyền Kỳ,33.0,2480.0,20.9387353,105.7546467
451,06/12/2022,nan,nan,nan,Sổ đỏ,Cơ bản,6 tầng,4.0,12 m,Hà Nội,Đống Đa,Phường Láng Hạ,Phố Hoàng Ngọc Phách,50.0,13800.0,21.0156644,105.8123428
450,05/12/2022,nan,nan,nan,nan,nan,5 tầng,nan,nan,Hà Nội,Đống Đa,Phường Cát Linh,Đường Cát Linh,125.0,62900.0,21.02392085,105.82280000684547
452,16/11/2022,nan,6.0,4.0,Sổ đỏ/ Sổ hồng,nan,3 tầng,nan,nan,Hà Nội,Cầu Giấy,Phường Nghĩa Đô,Phố Phùng Chí Kiên,200.0,76000.0,21.0451018,105.8025169
453,25/11/2022,nan,5.0,5.0,Sổ đỏ chính chủ.,Hiện Đại,5 tầng,5.0,20 m,Hà Nội,Thanh Xuân,Phường Thanh Xuân Bắc,Đường Khuất Duy Tiến,68.0,10000.0,20.9951198,105.8001054
454,04/11/2022,nan,4.0,4.0,Sổ đỏ/ Sổ hồng.,Full,4 tầng,5.0,20 m,Hà Nội,Cầu Giấy,Phường Nghĩa Đô,Phố Nghĩa Đô,50.0,16000.0,21.048333,105.7955714
455,16/11/2022,nan,6.0,5.0,Sổ đỏ/ Sổ hồng,nan,5 tầng,4.5,15 m,Hà Nội,Cầu Giấy,Phường Dịch Vọng,Phố Trần Quốc Hoàn,80.0,17000.0,21.0417055,105.7855986
456,25/11/2022,nan,6.0,5.0,Sổ đỏ.,nan,5 tầng,nan,nan,Hà Nội,Hoàng Mai,Phường Tân Mai,Đường Kim Đồng,65.0,9500.0,,
457,22/11/2022,nan,3.0,3.0,Sổ đỏ/ Sổ hồng,Nội thất cơ bản đầy đủ ạh,4 tầng,nan,nan,Hà Nội,Hà Đông,Phường Yên Nghĩa,Đường Yên Lộ,32.0,1900.0,20.9296566,105.7158497
458,26/11/2022,nan,4.0,3.0,Sổ đỏ/ Sổ hồng,Đầy đủ,4 tầng,7.3,5 m,Hà Nội,Đống Đa,Phường Ô Chợ Dừa,Phố Hào Nam,43.0,5200.0,21.0260273,105.8275844
459,22/11/2022,nan,3.0,3.0,Sổ đỏ/ Sổ hồng,Nội thất cơ bản đầy đủ ạ.,4 tầng,nan,nan,Hà Nội,Chương Mỹ,Xã Phụng Châu,Đường Tỉnh Lộ 80,35.0,1200.0,,
460,22/11/2022,nan,25.0,25.0,Sổ đỏ/ Sổ hồng,Đầy đủ,8 tầng,9.0,3 m,Hà Nội,Cầu Giấy,Phường Dịch Vọng Hậu,Đường Xuân Thủy,85.0,15500.0,21.0365402,105.7848143
462,29/11/2022,nan,4.0,4.0,Sổ đỏ.,nan,4 tầng,nan,nan,Hà Nội,Thanh Xuân,Phường Khương Mai,Đường Nguyễn Ngọc Nại,47.0,6300.0,,
463,06/12/2022,nan,nan,nan,Sổ đỏ/ Sổ hồng,Cơ bản,7 tầng,9.0,15 m,Hà Nội,Cầu Giấy,Phường Mai Dịch,Đường Dương Khuê,96.0,36000.0,21.0366503,105.7737259
461,27/11/2022,E,4.0,4.0,nan,Cơ bản,3 tầng,4.3,nan,Hà Nội,Hà Đông,Phường Phú Lãm,Đường Ba La,51.6,5950.0,20.9296566,105.7158497
464,06/12/2022,nan,nan,nan,Sổ đỏ/ Sổ hồng,Đầy đủ,6 tầng,22.0,15 m,Hà Nội,Thanh Xuân,Phường Thanh Xuân Trung,Đường Nguyễn Tuân,110.0,42000.0,20.9986947,105.8030395
465,06/12/2022,nan,nan,nan,Sổ đỏ/ Sổ hồng.,Đầy đủ.,4 tầng,6.5,12 m,Hà Nội,Cầu Giấy,Phường Yên Hòa,Đường Nguyễn Khang,100.0,13500.0,21.0203224,105.7998843
466,06/12/2022,E,nan,nan,SĐCC,nan,3 tầng,nan,nan,Hà Nội,Nam Từ Liêm,Phường Mễ Trì,Đường Đại lộ Thăng Long,96.0,30000.0,21.0042343,105.7815991
467,05/12/2022,nan,nan,nan,nan,nan,8 tầng,7.2,nan,Hà Nội,Thanh Xuân,Phường Nhân Chính,Đường Khuất Duy Tiến,75.0,40900.0,21.001987,105.7946087
468,06/12/2022,W,6.0,4.0,Sổ đỏ/ Sổ hồng,nan,4 tầng,8.0,17.5 m,Hà Nội.,Nam Từ Liêm,Phường Đại Mỗ,Đường 70,120.0,16500.0,21.0097443,105.7458536
469,05/12/2022,nan,nan,nan,nan,nan,8 tầng,7.2,nan,Hà Nội,Thanh Xuân,Phường Nhân Chính,Đường Khuất Duy Tiến,120.0,69900.0,21.001987,105.7946087
470,06/12/2022,nan,4.0,3.0,Sổ đỏ/ Sổ hồng,Nội thất đầy đủ,4 tầng,7.0,3 m,Hà Nội,Ba Đình,Phường Vĩnh Phúc,Đường Vĩnh Phúc,62.0,8500.0,21.0460074,105.8110403
471,05/12/2022,nan,nan,nan,nan,nan,8 tầng,nan,nan,Hà Nội,Thanh Xuân,Phường Nhân Chính,Phố Ngụy Như Kon Tum,90.0,44900.0,21.0018072,105.8046864
473,05/12/2022,nan,nan,nan,nan,nan,9 tầng,6.0,nan,Hà Nội,Thanh Xuân,Phường Nhân Chính,Đường Giáp Nhất,75.0,39900.0,21.0077879,105.8143814
472,06/12/2022,nan,4.0,3.0,Sổ đỏ/ Sổ hồng,nan,4 tầng,nan,nan,Hà Nội,Hà Đông,Phường Mỗ Lao,Đường Mỗ Lao,45.0,11000.0,20.976249,105.78223944259793
474,05/12/2022,nan,nan,nan,nan,nan,8 tầng,6.0,nan,Hà Nội,Thanh Xuân,Phường Nhân Chính,Phố Nhân Hòa,105.0,34900.0,21.00209,105.808605
476,05/12/2022,nan,nan,nan,nan,nan,9 tầng,6.0,nan,Hà Nội,Thanh Xuân,Phường Nhân Chính,Đường Vũ Trọng Phụng,100.0,26900.0,21.0012013,105.8068533
475,06/12/2022,W,5.0,4.0,Sổ đỏ/ Sổ hồng,nan,5 tầng,5.0,10 m,Hà Nội,Hoàng Mai,Phường Định Công,Đường Nguyễn Cảnh Dị,65.0,11000.0,,
478,03/12/2022,nan,3.0,4.0,nan,nan,5 tầng,nan,nan,Hà Nội,Tây Hồ,Phường Xuân La,Đường Xuân La,35.0,4000.0,21.0670509,105.8040892
477,02/12/2022,nan,3.0,4.0,nan,nan,5 tầng,nan,nan,Hà Nội,Tây Hồ,Phường Phú Thượng,Đường An Dương Vương,35.0,3500.0,21.0897989,105.7948065
479,03/12/2022,W,4.0,4.0,Sổ đỏ/ Sổ hồng,nan,4 tầng,nan,nan,Hà Nội,Long Biên,Phường Thạch Bàn,Phố Sài Đồng,40.0,3680.0,21.0300731,105.9135424
480,05/12/2022,nan,nan,nan,nan,nan,6 tầng,5.2,nan,Hà Nội,Thanh Xuân,Phường Nhân Chính,Đường Nguyễn Tuân,65.0,32900.0,21.00204,105.8003929
481,29/11/2022,nan,5.0,4.0,Đã có sổ đỏ,Cao cấp,5 tầng,4.0,2 m,Hà Nội,Đống Đa,Phường Trung Tự,Đường Phạm Ngọc Thạch,40.0,6300.0,,
482,06/12/2022,nan,2.0,2.0,Sổ đỏ/ Sổ hồng,nan,1 tầng,8.0,32 m,Hà Nội,Hoàng Mai,Phường Tân Mai,Đường Tân Mai,160.0,38000.0,20.9837437,105.8460482
483,06/12/2022,nan,3.0,4.0,Sổ đỏ/ Sổ hồng,Nội thất đầy đủ cao cấp,5 tầng,4.0,3 m,Hà Nội,Ba Đình,Phường Cống Vị,Đường Đội Cấn,37.0,5200.0,,
484,06/12/2022,nan,4.0,4.0,Sổ đỏ/ Sổ hồng.,nan,6 tầng,nan,nan,Hà Nội,Hoàng Mai,Phường Đại Kim,Đường Nguyễn Cảnh Dị,66.0,10500.0,,
485,06/12/2022,E,1.0,1.0,Sổ đỏ/ Sổ hồng,Đầy đủ,1 tầng,6.0,6 m,Hà Nội,Hai Bà Trưng,Phường Vĩnh Tuy,Đường Minh Khai,92.0,8600.0,20.9958286,105.8517382
486,06/12/2022,nan,4.0,3.0,Sổ đỏ/ Sổ hồng,Đầy đủ,4 tầng,7.0,3 m,Hà Nội,Cầu Giấy,Phường Dịch Vọng,Đường Trần Thái Tông,40.0,4900.0,21.0355095,105.7891451
487,03/12/2022,nan,3.0,3.0,Sổ đỏ/ Sổ hồng,Đầy đủ,3 tầng,3.5,4 m,Hà Nội,Long Biên,Phường Long Biên,Đường Đàm Quang Trung,42.0,3350.0,,
488,06/12/2022,nan,nan,nan,Sổ đỏ/ Sổ hồng.,nan,8 tầng,10.0,nan,Hà Nội,Thanh Xuân,Phường Khương Mai,Đường Tô Vĩnh Diện,95.0,26000.0,,
489,02/12/2022,nan,4.0,4.0,Sổ đỏ/ Sổ hồng.,nan,4 tầng,5.0,8 m,Hà Nội,Long Biên,Phường Long Biên,Đường Tư Đình,80.0,14500.0,,
490,06/12/2022,nan,4.0,4.0,Sổ đỏ/ Sổ hồng,nan,5 tầng,nan,15 m,Hà Nội,Hai Bà Trưng,Phường Minh Khai,Đường Minh Khai,68.0,13000.0,20.9957496,105.8517179
491,06/12/2022,nan,nan,nan,nan,nan,5 tầng,nan,nan,Hà Nội,Tây Hồ,Phường Xuân La,Đường Nguyễn Văn Huyên,180.0,91800.0,,
492,05/12/2022,nan,nan,nan,nan,nan,6 tầng,6.0,nan,Hà Nội,Thanh Xuân,Phường Nhân Chính,Đường Nguyễn Tuân,95.0,53900.0,21.00204,105.8003929
493,05/12/2022,nan,4.0,3.0,Sổ đỏ/ Sổ hồng,Đầy đủ,4 tầng,nan,nan,Hà Nội,Thanh Xuân,Phường Khương Mai,Đường Khương Trung,42.0,4800.0,21.0023726,105.8223063
495,06/12/2022,nan,nan,nan,Sổ đỏ/ Sổ hồng,nan,7 tầng,9.0,nan,Hà Nội,Thanh Xuân,Phường Thanh Xuân Trung,Phố Ngụy Như Kon Tum,90.0,44000.0,,
494,06/12/2022,nan,4.0,4.0,Sổ đỏ/ Sổ hồng,nan,5 tầng,3.0,3 m,Hà Nội,Ba Đình,Phường Kim Mã,Phố Kim Mã,40.0,6100.0,21.0314529,105.8218018
496,06/12/2022,nan,6.0,5.0,Sổ đỏ chính chủ sẵn sàng giao dịch.,Đầy đủ.,5 tầng,4.0,3 m,Hà Nội,Thanh Xuân,Phường Khương Đình,Phố Cự Lộc,39.0,3100.0,,
497,06/12/2022,nan,2.0,2.0,Sổ đỏ/ Sổ hồng,nan,3 tầng,nan,4 m,Hà Nội,Long Biên,Phường Cự Khối,Đường Độc Lập,31.0,1690.0,21.0031089,105.9029603
498,06/12/2022,nan,nan,nan,Sổ đỏ/ Sổ hồng,nan,7 tầng,6.5,nan,Hà Nội,Cầu Giấy,Phường Trung Hòa,Đường Nam Trung Yên,140.0,72000.0,,
499,06/12/2022,nan,13.0,15.0,nan,nan,7 tầng,6.0,4 m,Hà Nội,Tây Hồ,Phường Bưởi,đường Võng Thị,95.0,21500.0,,
500,06/12/2022,W,3.0,3.0,nan,"Nội thất xịn, sàn gỗ,Trần thạch cao,đèn nét,ốp đá trang trí ...",5 tầng,3.0,4 m,Hà Nội,Thanh Trì,Xã Tả Thanh Oai,Đường Cầu Bươu,30.0,4000.0,,
501,06/12/2022,nan,nan,nan,Sổ đỏ/ Sổ hồng,"Đầy đủ, sang trọng.",4 tầng,14.0,nan,Hà Nội,Cầu Giấy,Phường Dịch Vọng Hậu,Đường Thọ Tháp,190.0,57000.0,,
503,06/12/2022,nan,11.0,12.0,Sổ đỏ/ Sổ hồng,nan,7 tầng,5.0,3 m,Hà Nội,Ba Đình,Phường Đội Cấn,Đường Đội Cấn,60.0,10800.0,21.0358189,105.8348752
504,06/12/2022,nan,3.0,4.0,Sổ đỏ/ Sổ hồng,Nội thất đầy đủ,5 tầng,6.6,3 m,Hà Nội,Ba Đình,Phường Đội Cấn,Đường Đội Cấn,37.0,4650.0,21.0358189,105.8348752
502,05/12/2022,nan,3.0,5.0,Sổ đỏ/ Sổ hồng,Đầy đủ,6 tầng,nan,3 m,Hà Nội,Ba Đình,Phường Cống Vị,Đường Đào Tấn,36.0,4500.0,21.034123700000002,105.80581121482803
505,06/12/2022,E,nan,nan,nan,nan,6 tầng,6.5,nan,Hà Nội,Hà Đông,Phường Vạn Phúc,Đường Tố Hữu,91.0,24000.0,,
506,06/12/2022,nan,4.0,4.0,Sổ đỏ/ Sổ hồng,nan,5 tầng,5.0,3 m,Hà Nội,Ba Đình,Phường Đội Cấn,Đường Đội Cấn,38.0,4700.0,21.0358189,105.8348752
508,06/12/2022,nan,4.0,5.0,Sổ đỏ/ Sổ hồng,nan,5 tầng,5.0,nan,Hà Nội,Quận Ba Đình,nan,nan,40.0,4750.0,21.0365377,105.8285908
507,06/12/2022,W,nan,nan,nan,nan,4 tầng,nan,15 m,Hà Nội,Bắc Từ Liêm,Phường Xuân Đỉnh,Đường Xuân Đỉnh,168.0,16800.0,21.0713312,105.7939692
509,06/12/2022,E,nan,nan,nan,nan,5 tầng,nan,nan,Hà Nội,Hà Đông,Phường Vạn Phúc,Đường Tố Hữu,100.0,20000.0,,
510,06/12/2022,W,nan,nan,Sổ đỏ,nan,3 tầng,nan,13 m,Hà Nội,Long Biên,Phường Việt Hưng,Đường Nguyệt Quế 7,90.0,23000.0,,
511,06/12/2022,nan,4.0,nan,Sổ đỏ/ Sổ hồng,nan,6 tầng,nan,nan,Hà Nội,Cầu Giấy,Phường Mai Dịch,Đường Nguyễn Khả Trạc,130.0,55000.0,,
512,06/12/2022,nan,nan,nan,nan,nan,6 tầng,nan,17 m,Hà Nội,Hà Đông,Phường Vạn Phúc,Đường Tố Hữu,102.0,16000.0,,
513,06/12/2022,nan,6.0,5.0,nan,nan,5 tầng,4.2,4 m,Hà Nội,Hoàng Mai,Phường Thịnh Liệt,Đường Thịnh Liệt,58.0,7500.0,20.9649039,105.8570854
514,06/12/2022,nan,3.0,4.0,Sổ đỏ/ Sổ hồng,"Sàn gỗ, trần thạch cao giật cấp, tủ bếp, thiết bị vệ sinh...",5 tầng,nan,3 m,Hà Nội,Long Biên,Phường Cự Khối,Đường Xuân Đỗ,30.0,2750.0,21.0031089,105.9029603
515,06/12/2022,nan,4.0,5.0,nan,nan,5 tầng,3.5,3 m,Hà Nội,Bắc Từ Liêm,Phường Phúc Diễn,Đường Hồ Tùng Mậu,50.0,5500.0,,
516,06/12/2022,E,5.0,4.0,Sổ đỏ/ Sổ hồng,Nội thất cơ bản.,5 tầng,4.5,4 m,Hà Nội,Long Biên,Phường Phúc Lợi,Đường Phúc Lợi,65.0,8300.0,21.038209,105.930126
517,06/12/2022,nan,3.0,4.0,nan,nan,5 tầng,nan,nan,Hà Nội,Long Biên,Phường Việt Hưng,Đường Kim Quan,30.0,3350.0,,
518,06/12/2022,E,5.0,5.0,Sổ đỏ/ Sổ hồng,Nội thất nhập khẩu Châu Âu,6 tầng,7.0,16 m,Hà Nội,Long Biên,Phường Giang Biên,Đường Giang Biên,80.0,17000.0,20.9308499,105.7173157
519,29/11/2022,nan,6.0,3.0,Sổ đỏ/ Sổ hồng,Đầy đủ,5 tầng,6.2,nan,Hà Nội,Thanh Xuân,Phường Thanh Xuân Bắc,Đường Nguyễn Trãi,45.0,5880.0,20.9913651,105.802721
520,06/12/2022,nan,10.0,12.0,Sổ đỏ,Full nội thất.,7 tầng,6.0,5 m,Hà Nội,Cầu Giấy,Phường Quan Hoa,Đường Dương Quảng Hàm,80.0,18000.0,21.0351399,105.8001548
521,06/12/2022,nan,10.0,10.0,Sổ đỏ/ Sổ hồng.,nan,9 tầng,7.2,60 m,Hà Nội,Thanh Xuân,Phường Nhân Chính,Đường Khuất Duy Tiến,100.0,48000.0,21.001987,105.7946087
522,01/12/2022,nan,nan,nan,Sổ đỏ/ Sổ hồng,Đầy đủ,6 tầng,5.5,nan,Hà Nội,Thanh Xuân,Phường Hạ Đình,Đường Nguyễn Tuân,69.0,22500.0,,
523,06/12/2022,nan,3.0,4.0,Sổ đỏ/ Sổ hồng,nan,5 tầng,3.8,3 m,Hà Nội,Tây Hồ,Phường Bưởi,Đường Thụy Khuê,36.0,4650.0,21.045642,105.8134398
524,01/12/2022,nan,3.0,3.0,Sổ đỏ/ Sổ hồng,Đầy đủ,5 tầng,3.75,nan,Hà Nội,Thanh Xuân,Phường Khương Trung,Đường Trường Chinh,31.0,4850.0,21.0023726,105.8223063
525,29/11/2022,nan,3.0,2.0,Sổ đỏ/ Sổ hồng,Đầy đủ,4 tầng,nan,nan,Hà Nội,Hà Đông,Phường Mỗ Lao,nan,76.0,6000.0,20.976249,105.78223944259793
526,06/12/2022,nan,2.0,1.0,nan,nan,1 tầng,6.0,2.5 m,Hà Nội,Hoàng Mai,Phường Thịnh Liệt,Đường Thịnh Liệt,66.0,3150.0,20.9649039,105.8570854
527,06/12/2022,N,3.0,3.0,Sổ đỏ/ Sổ hồng,Đầy đủ,4 tầng,5.0,3 m,Hà Nội,Ba Đình,Phường Quán Thánh,Phố Đặng Tất,20.0,4000.0,21.0414718,105.8379702
528,06/12/2022,nan,nan,nan,nan,nan,5 tầng,nan,nan,Hà Nội,Nam Từ Liêm,Phường Phú Đô,Đường Lê Quang Đạo,61.0,7000.0,21.0089131,105.773176
529,06/12/2022,W,4.0,4.0,Sổ đỏ/ Sổ hồng,nan,4 tầng,10.0,6 m,Hà Nội,Hà Đông,Phường Hà Cầu,Đường Tô Hiệu,186.5,23000.0,20.9648961,105.7729782
530,06/12/2022,nan,5.0,5.0,Sổ đỏ chính chủ.,nan,6 tầng,4.0,6 m,Hà Nội,Thanh Xuân,Phường Khương Đình,Đường Hoàng Đạo Thành,50.0,9900.0,,
531,02/12/2022,nan,10.0,5.0,Sổ đỏ/ Sổ hồng,Đầy đủ,7 tầng,4.0,nan,Hà Nội,Thanh Xuân,Phường Khương Trung,Đường Hoàng Văn Thái,65.0,17900.0,,
532,06/12/2022,nan,nan,nan,Có sổ đỏ.,nan,6 tầng,nan,nan,Hà Nội,Cầu Giấy,Phường Mai Dịch,Đường Nguyễn Hoàng,80.0,35000.0,,
533,06/12/2022,nan,4.0,5.0,Sổ đỏ/ Sổ hồng,nan,5 tầng,4.0,3 m,Hà Nội,Bắc Từ Liêm,Phường Xuân Đỉnh,Đường Tân Xuân,60.0,4590.0,21.0809896,105.7850267
534,25/11/2022,nan,nan,nan,Sổ đỏ,nan,4 tầng,nan,nan,Hà Nội,Ba Đình,Phường Ngọc Khánh,Phố Kim Mã,160.0,38000.0,21.0297652,105.809434
535,09/11/2022,nan,3.0,4.0,nan,nan,5 tầng,4.0,3 m,Hà Nội,Hoàng Mai,Phường Vĩnh Hưng,Đường Đông Thiên,36.0,2789.0,,
536,25/11/2022,nan,3.0,4.0,Sổ đỏ/ Sổ hồng,nan,6 tầng,4.0,nan,Hà Nội,Đống Đa,Phường Khương Thượng,Đường Trường Chinh,45.0,5800.0,20.9992239,105.8356324
537,06/12/2022,nan,3.0,3.0,Sổ đỏ.,nan,3 tầng,4.7,nan,Hà Nội,Đống Đa,Phường Ngã Tư Sở,Phố Thái Hà,59.0,8000.0,21.0058186,105.8224422
539,02/12/2022,nan,2.0,3.0,Sổ đỏ,Đầy đủ,5 tầng,4.3,2.5 m,Hà Nội,Nam Từ Liêm,Phường Mễ Trì,Đường Mễ Trì Thượng,38.0,4050.0,,
538,06/12/2022,nan,nan,nan,nan,nan,4 tầng,4.0,nan,Hà Nội,Nam Từ Liêm,Phường Mỹ Đình 2,Đường Mỹ Đình,43.0,7200.0,21.0272998,105.7740252
540,06/12/2022,nan,nan,nan,Sổ đỏ/ Sổ hồng.,nan,4 tầng,nan,nan,Hà Nội.,Nam Từ Liêm,Phường Mỹ Đình 1,Đường Mỹ Đình,51.5,10500.0,21.0225553,105.7745578
541,06/12/2022,nan,nan,nan,Sổ đỏ/ Sổ hồng.,nan,4 tầng,nan,nan,Hà Nội.,Nam Từ Liêm,Phường Đại Mỗ,Đường Tố Hữu,80.0,12000.0,,
542,06/12/2022,W,4.0,5.0,Sổ đỏ riêng chính chủ,Nội thất xịn sò đầy đủ,6 tầng,4.5,8 m,Hà Nội,Hai Bà Trưng,Phường Vĩnh Tuy,Đường Nguyễn Khoái,51.2,5650.0,21.0021499,105.87532
543,06/12/2022,E,4.0,3.0,Sổ đỏ/ Sổ hồng,Đầy đủ,4 tầng,nan,2 m,Hà Nội,Hoài Đức,Xã Di Trạch,Đường 32,30.0,2700.0,21.0500573,105.7243446
544,01/12/2022,nan,4.0,4.0,Sổ đỏ/ Sổ hồng.,Đầy đủ.,4 tầng,3.3,nan,Hà Nội,Long Biên,Phường Long Biên,Đường Cổ Linh,46.0,4300.0,21.0230047,105.9053622
545,06/12/2022,nan,nan,nan,Sổ đỏ,nan,5 tầng,5.0,nan,Hà Nội,Cầu Giấy,Phường Mai Dịch,Đường Hồ Tùng Mậu,75.0,15000.0,21.0382232,105.7719404
546,06/12/2022,nan,nan,nan,Sổ đỏ/ Sổ hồng,nan,5 tầng,6.0,nan,Hà Nội,Hai Bà Trưng,Phường Nguyễn Du,Phố Thiền Quang,35.0,19500.0,21.0195517,105.8424683
547,06/12/2022,nan,nan,nan,nan,nan,3 tầng,4.0,nan,Hà Nội,Nam Từ Liêm,Phường Mỹ Đình 2,đường Mỹ Đình,58.0,6000.0,21.0272998,105.7740252
548,02/12/2022,nan,4.0,3.0,Sổ đỏ/ Sổ hồng.,Đầy đủ.,4 tầng,3.3,3 m,Hà Nội.,Nam Từ Liêm,Phường Mễ Trì,Đường Mễ Trì Hạ,42.0,4400.0,21.0111985,105.773048
549,06/12/2022,E,5.0,5.0,nan,Cơ bản đầy đủ,4 tầng,5.1,6 m,Hà Nội,Hai Bà Trưng,Phường Vĩnh Tuy,Đường Minh Khai,76.0,11000.0,20.9958286,105.8517382
550,02/12/2022,nan,3.0,4.0,Sổ đỏ/ Sổ hồng,Đầy đủ.,5 tầng,4.3,3 m,Hà Nội,Long Biên,Phường Long Biên,Đường Cổ Linh,40.0,3700.0,21.0230047,105.9053622
551,02/12/2022,nan,nan,nan,nan,nan,4 tầng,nan,nan,Hà Nội,Hai Bà Trưng,Phường Vĩnh Tuy,Đường Dương Văn Bé,50.0,12000.0,20.9967105,105.8739017
552,06/12/2022,E,7.0,7.0,Sổ đỏ,Hoàn thiện mặt ngoài,6 tầng,6.5,22 m,Hà Nội,Hà Đông,Phường Vạn Phúc,Đường Tố Hữu,91.0,16500.0,,
553,28/11/2022,nan,5.0,4.0,Sổ đỏ/ Sổ hồng,Nội Thất đầy đủ,5 tầng,3.7,2.5 m,Hà Nội,Hai Bà Trưng,Phường Minh Khai,Đường Kim Ngưu,47.0,4650.0,,
554,02/12/2022,W,3.0,4.0,Sổ đỏ/ Sổ hồng,Nội thất đầy đủ .,5 tầng,4.5,4 m,Hà Nội,Hoàng Mai,Phường Vĩnh Hưng,Đường Vĩnh Hưng,35.0,4000.0,20.9879602,105.8708715
555,06/12/2022,nan,nan,nan,Sổ đỏ/ Sổ hồng,nan,4 tầng,8.0,nan,Hà Nội,Hai Bà Trưng,Phường Bách Khoa,Phố Tạ Quang Bửu,65.0,10500.0,21.0054996,105.8471794
556,30/11/2022,W,6.0,6.0,Sổ đỏ/ Sổ hồng,Cơ bản đầy đủ thang máy xịn sò,7 tầng,4.0,4 m,Hà Nội,Hai Bà Trưng,Phường Bạch Đằng,Đường Nguyễn Cao,46.0,7250.0,,
557,06/12/2022,E,6.0,6.0,Sổ đỏ/ Sổ hồng,Hoàn thiện mặt ngoài,5 tầng,5.0,17 m,Hà Nội,Hà Đông,Phường Vạn Phúc,Đường Tố Hữu,90.0,16000.0,,
558,05/12/2022,E,5.0,4.0,Sổ đỏ/ Sổ hồng,nan,5 tầng,3.8,3 m,Hà Nội,Hai Bà Trưng,Phường Minh Khai,Đường Minh Khai,36.0,4250.0,20.9957496,105.8517179
559,30/11/2022,nan,3.0,4.0,Sổ đỏ/ Sổ hồng.,Nội thất đẹp.,5 tầng,4.0,3.5 m,Hà Nội,Long Biên,Phường Long Biên,Đường Phố Trạm,31.0,3550.0,,
561,05/12/2022,E,3.0,3.0,Sổ đỏ/ Sổ hồng.,nan,5 tầng,4.0,3.8 m,Hà Nội,Hoàng Mai,Phường Vĩnh Hưng,Đường Vĩnh Hưng,30.0,3680.0,20.9879602,105.8708715
560,05/12/2022,nan,3.0,nan,nan,nan,5 tầng,nan,nan,Hà Nội,Hai Bà Trưng,Phường Bạch Mai,Phố Bạch Mai,30.0,3500.0,21.0029814,105.8508645
562,06/12/2022,nan,nan,nan,Sổ đỏ,Đầy đủ,5 tầng,nan,nan,Hà Nội,Bắc Từ Liêm,Phường Phú Diễn,Đường Phú Kiều,50.0,7400.0,21.0418503,105.75087281477036
564,06/12/2022,nan,6.0,5.0,Sổ đỏ/ Sổ hồng.,nan,5 tầng,4.0,3 m,Hà Nội,Hoàng Mai,Phường Tương Mai,Đường Nguyễn Đức Cảnh,48.0,5780.0,20.9889605,105.8529436
563,06/12/2022,E,4.0,5.0,Sổ đỏ,nan,4 tầng,5.2,nan,Hà Nội,Hà Đông,Phường Mỗ Lao,Đường Thanh Bình,45.0,5350.0,20.9748562,105.7806426
565,06/12/2022,nan,4.0,3.0,Sổ đỏ/ Sổ hồng,Đầy đủ,4 tầng,5.1,nan,Hà Nội,Ba Đình,Phường Đội Cấn,Đường Đội Cấn,52.0,11500.0,21.0358189,105.8348752
566,06/12/2022,nan,6.0,7.0,Sổ đỏ/ Sổ hồng.,nan,7 tầng,8.2,10 m,Hà Nội,Hoàng Mai,Phường Mai Động,Đường Lĩnh Nam,72.0,13500.0,20.9889205,105.8659445
567,06/12/2022,nan,3.0,4.0,Sổ đỏ/ Sổ hồng,Đầy đủ,5 tầng,4.0,3 m,Hà Nội,Nam Từ Liêm,Phường Mễ Trì,Đường Mễ Trì Hạ,34.0,4650.0,21.0111985,105.773048
569,06/12/2022,nan,5.0,5.0,Sổ đỏ/ Sổ hồng,nan,5 tầng,nan,nan,Hà Nội,Ba Đình,Phường Ngọc Hà,Đường Trần Phú,51.0,33000.0,,
570,06/12/2022,nan,4.0,3.0,Sổ đỏ/ Sổ hồng,Đầy đủ,4 tầng,3.4,2.8 m,Hà Nội,Tây Hồ,Phường Bưởi,Đường Trích Sài,43.0,6250.0,,
568,06/12/2022,W,4.0,4.0,Sổ đỏ/ Sổ hồng,nan,4 tầng,nan,nan,Hà Nội,Hà Đông,Phường Mỗ Lao,Đường An Hòa,80.0,14800.0,,
571,06/12/2022,nan,3.0,nan,nan,nan,5 tầng,nan,nan,Hà Nội,Cầu Giấy,Phường Quan Hoa,Đường Cầu Giấy,46.0,4200.0,21.0319877,105.7994621
572,03/12/2022,nan,nan,nan,nan,nan,6 tầng,6.2,nan,Hà Nội,Thanh Xuân,Phường Kim Giang,Phố Vũ Tông Phan,50.0,9700.0,,
573,06/12/2022,nan,3.0,4.0,Sổ đỏ vuông đẹp,Cao cấp,5 tầng,4.0,3 m,Hà Nội,Thanh Xuân,Phường Hạ Đình,Đường Khương Đình,33.0,4500.0,20.9942054,105.81421
574,06/12/2022,S,3.0,4.0,Sổ đỏ/ Sổ hồng,nan,5 tầng,4.65,2.5 m,Hà Nội,Hai Bà Trưng,Phường Vĩnh Tuy,Đường Minh Khai,42.0,5600.0,20.9958286,105.8517382
575,06/12/2022,S,3.0,4.0,Sổ đỏ/ Sổ hồng.,nan,5 tầng,4.65,2.5 m,Hà Nội,Hoàng Mai,Phường Mai Động,Đường Minh Khai,42.0,5600.0,20.9930009,105.8623673
576,06/12/2022,nan,5.0,nan,Sổ đỏ/ Sổ hồng,nan,5 tầng,nan,nan,Hà Nội,Thanh Xuân,Phường Khương Trung,Đường Khương Trung,39.0,3800.0,21.001638,105.8184796
577,06/12/2022,nan,3.0,3.0,Sổ đỏ/ Sổ hồng.,nan,5 tầng,nan,nan,Hà Nội,Long Biên,Phường Ngọc Lâm,Phố Gia Quất,45.0,3400.0,21.0523618,105.8778258
578,06/12/2022,nan,3.0,4.0,Sổ đỏ/ Sổ hồng.,Đầy đủ.,5 tầng,nan,nan,Hà Nội.,Nam Từ Liêm,Phường Mễ Trì,Đường Mễ Trì,36.0,3400.0,21.0111985,105.773048
579,06/12/2022,nan,4.0,4.0,Sổ đỏ/ Sổ hồng,Nội thất đầy đủ,5 tầng,4.0,3 m,Hà Nội,Ba Đình,Phường Vĩnh Phúc,Đường Bưởi,38.0,4900.0,21.0403428,105.8068392
580,06/12/2022,nan,3.0,4.0,Sổ đỏ/ Sổ hồng,Đầy đủ,5 tầng,3.8,nan,Hà Nội,Ba Đình,Phường Ngọc Hà,Đường Ngọc Hà,66.0,15200.0,21.0306261,105.8024741
581,03/12/2022,nan,1.0,1.0,Sổ đỏ,nan,1 tầng,5.0,5 m,Hà Nội,Hai Bà Trưng,Phường Minh Khai,Đường Minh Khai,90.0,11800.0,20.9957496,105.8517179
582,06/12/2022,nan,3.0,4.0,Sổ đỏ/ Sổ hồng,Đầy đủ,5 tầng,8.0,20 m,Hà Nội,Thanh Xuân,Phường Nhân Chính,Đường Nguyễn Thị Thập,115.0,54500.0,,
583,06/12/2022,nan,4.0,4.0,Sổ đỏ/ Sổ hồng,nan,4 tầng,4.6,4 m,Hà Nội,Thanh Xuân,Phường Khương Trung,Đường Hoàng Văn Thái,40.0,8500.0,,
584,06/12/2022,nan,4.0,5.0,Sổ đỏ/ Sổ hồng,nan,5 tầng,5.0,50 m,Hà Nội,Cầu Giấy,Phường Mai Dịch,Đường Hồ Tùng Mậu,60.0,21900.0,21.0382232,105.7719404
585,06/12/2022,nan,4.0,5.0,Sổ đỏ/ Sổ hồng,nan,5 tầng,4.5,12 m,Hà Nội,Đống Đa,Phường Láng Hạ,Đường Huỳnh Thúc Kháng,55.0,14500.0,,
586,06/12/2022,E,3.0,2.0,Sổ đỏ/ Sổ hồng,Full nội thất cơ bản.,3 tầng,3.5,3 m,Hà Nội,Chương Mỹ,Xã Phụng Châu,Đường Quốc lộ 6,33.0,1220.0,,
587,06/12/2022,nan,nan,nan,Sổ đỏ/ Sổ hồng,nan,6 tầng,4.2,nan,Hà Nội,Thanh Xuân,Phường Thanh Xuân Trung,Đường Khuất Duy Tiến,32.0,9950.0,20.997077,105.7990333
588,01/12/2022,nan,2.0,3.0,Sổ đỏ/ Sổ hồng,Cơ bản,4 tầng,3.5,3 m,Hà Nội,Hà Đông,Phường Phú Lương,Phố Phú Lương,34.0,2070.0,20.9414719,105.7607661
589,06/12/2022,nan,4.0,6.0,Sổ đỏ,Đầy đủ.,7 tầng,5.0,nan,Hà Nội,Hai Bà Trưng,Phường Minh Khai,Đường Minh Khai,80.0,20000.0,20.9957496,105.8517179
590,04/12/2022,E,9.0,9.0,"Sổ đỏ, sổ hồng",Full đồ.,5 tầng,3.8,4 m,Hà Nội,Cầu Giấy,Phường Yên Hòa,Đường Tú Mỡ,50.0,6380.0,,
591,01/12/2022,nan,5.0,3.0,Sổ đỏ/ Sổ hồng,Đầy đủ,5 tầng,nan,nan,Hà Nội,Thanh Trì,Xã Tam Hiệp,Đường Ngọc Hồi,43.0,3700.0,,
592,06/12/2022,nan,7.0,9.0,Sổ đỏ,nan,3 tầng,23.0,37 m,Hà Nội,Tây Hồ,Phường Phú Thượng,Đường Nguyễn Văn Huyên,500.0,215000.0,,
593,06/12/2022,nan,5.0,5.0,nan,nan,5 tầng,nan,nan,Hà Nội.,Hoàng Mai,Phường Tương Mai,Đường Lương Khánh Thiện,68.0,6500.0,,
594,02/12/2022,nan,6.0,7.0,Sổ đỏ/ Sổ hồng,nan,6 tầng,4.2,12 m,Hà Nội,Ba Đình,Phường Liễu Giai,Đường Văn Cao,65.0,15500.0,21.0395254,105.8158361
595,06/12/2022,nan,5.0,3.0,Sổ đỏ,"Nội thất cơ bản: Tủ bếp, thiết bị vệ sinh",4 tầng,nan,nan,Hà Nội,Hà Đông,Phường Biên Giang,nan,34.0,1750.0,20.9253776,105.72763783091283
597,02/12/2022,E,3.0,4.0,Sổ đỏ/ Sổ hồng,nan,5 tầng,5.0,2.5 m,Hà Nội,Nam Từ Liêm,Phường Xuân Phương,Đường 422B,30.0,2650.0,21.0315323,105.7479546
596,06/12/2022,nan,nan,nan,Sổ đỏ/ Sổ hồng,nan,15 tầng,nan,nan,Hà Nội,Đống Đa,Phường Láng Thượng,Đường Nguyễn Chí Thanh,270.0,199000.0,21.0154911,105.8047514
598,04/12/2022,nan,4.0,3.0,Sổ đỏ/ Sổ hồng,Đầy đủ.,4 tầng,nan,4 m,Hà Nội,Hà Đông,Phường Quang Trung,Đường Lê Trọng Tấn,60.0,5680.0,,
599,01/12/2022,nan,4.0,3.0,Sổ đỏ/ Sổ hồng,Đầy đủ.,4 tầng,nan,4 m,Hà Nội,Hà Đông,Phường Kiến Hưng,Đường Mậu Lương,47.0,3600.0,,
600,27/11/2022,nan,4.0,4.0,Đã có sổ đỏ,Hiện đại,5 tầng,5.8,3 m,Hà Nội,Hai Bà Trưng,Phường Bạch Mai,Phố Bùi Ngọc Dương,59.0,6000.0,21.0022187,105.8537558
601,27/11/2022,E,9.0,9.0,Sổ đỏ/ Sổ hồng,"Hiện đại, sang trọng",9 tầng,10.05,nan,Hà Nội,Cầu Giấy,Phường Quan Hoa,Đường Quan Hoa,190.0,98000.0,21.0361732,105.80152004140254
602,27/11/2022,E,4.0,4.0,nan,nan,4 tầng,5.0,13 m,Hà Nội,Hà Đông,Phường La Khê,nan,82.5,12200.0,20.9688293,105.75888660258434
603,27/11/2022,nan,3.0,3.0,Đã có sổ,Full nội thất,5 tầng,3.0,3 m,Hà Nội,Đống Đa,Phường Trung Phụng,Đường Trung Phụng,30.0,3300.0,21.0146222,105.840705
604,27/11/2022,E,5.0,5.0,Hợp đồng mua bán,Xây thô hoàn thiện mặt ngoài CĐT.,3 tầng,9.0,20 m,Hà Nội,Hoài Đức,Xã An Thượng,Đường Đại lộ Thăng Long,180.0,16200.0,21.0272734,105.6882645
605,27/11/2022,nan,9.0,11.0,Sổ đỏ/ Sổ hồng,nan,8 tầng,nan,nan,Hà Nội,Thanh Xuân,Phường Hạ Đình,Đường Khương Đình,70.0,17500.0,20.9942054,105.81421
606,19/11/2022,E,nan,nan,Sổ đỏ/ Sổ hồng,Full,4 tầng,nan,nan,Hà Nội,Hoàng Mai,Phường Đại Kim,Đường Nghiêm Xuân Yêm,200.0,55000.0,20.9720171,105.8200502
607,26/11/2022,W,nan,nan,Hợp đồng mua bán.,nan,5 tầng,5.0,nan,Hà Nội,Hoàng Mai,Phường Đại Kim,Đường Nghiêm Xuân Yêm,75.0,22000.0,20.9720171,105.8200502
608,26/11/2022,nan,nan,nan,nan,nan,3 tầng,8.0,nan,Hà Nội,Tây Hồ,Phường Xuân La,Đường Võ Chí Công,200.0,60000.0,21.0702199,105.8090596
609,02/12/2022,E,3.0,4.0,nan,Full.,5 tầng,4.0,2 m,Hà Nội,Bắc Từ Liêm,Phường Đông Ngạc,đường Đông Ngạc,35.0,3000.0,21.0923042,105.78167
610,05/12/2022,W,3.0,3.0,Sổ đỏ/ Sổ hồng,"Sàn gỗ, trần thạch cao, ti vi, điều hòa, tủ lạnh. giường, tủ,...",4 tầng,4.2,2.5 m,Hà Nội,Hoài Đức,Xã Vân Canh,Đường 422B,42.0,2550.0,21.0357012,105.7315514
611,06/12/2022,nan,10.0,10.0,Sổ đỏ/ Sổ hồng,Full đồ.,7 tầng,nan,nan,Hà Nội,Cầu Giấy,Phường Dịch Vọng Hậu,Đường Xuân Thủy,60.0,12500.0,21.0365402,105.7848143
612,06/12/2022,nan,4.0,3.0,Sổ đỏ/ Sổ hồng,Đầy đủ,4 tầng,4.0,3 m,Hà Nội,Thanh Xuân,Phường Thanh Xuân Trung,Đường Nguyễn Trãi,60.0,6000.0,21.001638,105.8184796
613,06/12/2022,E,4.0,3.0,Sổ đỏ chính chủ - sẵn sàng giao dịch,Full nội thất bàn giao cơ bản,4 tầng,5.6,2.5 m,Hà Nội,Hà Đông,Phường Kiến Hưng,Đường Mậu Lương,40.0,3050.0,,
614,06/12/2022,nan,nan,nan,Sổ đỏ/ Sổ hồng,nan,8 tầng,nan,nan,Hà Nội,Hoàn Kiếm,Phường Trần Hưng Đạo,Đường Hạ Hồi,130.0,43000.0,,
615,06/12/2022,nan,nan,nan,Sổ đỏ,nan,3 tầng,16.0,nan,Hà Nội,Ba Đình,Phường Đội Cấn,Đường Đội Cấn,1000.0,203000.0,21.0358189,105.8348752
616,06/12/2022,nan,nan,nan,nan,nan,4 tầng,3.5,nan,Hà Nội,Cầu Giấy,Phường Nghĩa Đô,Phố Nghĩa Đô,36.0,5600.0,21.048333,105.7955714
617,05/12/2022,nan,5.0,4.0,Sổ đỏ/ Sổ hồng.,nan,4 tầng,nan,nan,Hà Nội,Thanh Xuân,Phường Khương Mai,Đường Tô Vĩnh Diện,80.0,6500.0,,
618,06/12/2022,nan,5.0,4.0,Sổ đỏ/ Sổ hồng,nan,5 tầng,4.6,8 m,Hà Nội,Hà Đông,Phường La Khê,Đường Chiến Thắng,92.0,8500.0,20.9669812,105.7625686
620,06/12/2022,nan,4.0,5.0,Sổ đỏ/ Sổ hồng,Đầy đủ,6 tầng,3.8,4 m,Hà Nội,Cầu Giấy,Phường Quan Hoa,Đường Cầu Giấy,43.0,8100.0,21.0319877,105.7994621
619,06/12/2022,nan,3.0,4.0,Sổ đỏ/ Sổ hồng.,nan,5 tầng,3.5,4.5 m,Hà Nội,Long Biên,Phường Thạch Bàn,Đường Cổ Linh,40.0,3800.0,21.0230047,105.9053622
622,02/12/2022,N,3.0,4.0,Sổ đỏ/ Sổ hồng,Đầy đủ,5 tầng,4.0,2.5 m,Hà Nội,Nam Từ Liêm,Phường Đại Mỗ,Đường Hữu Hưng,32.0,3050.0,20.9957713,105.7467399
621,02/12/2022,W,4.0,3.0,Sổ đỏ/ Sổ hồng,"Nội thất cơ bản, gồm có: Hệ thống cửa chính, cửa thông phòng, tay vịn cầu thang gỗ Lim Nam Phi, tủ bếp gỗ Sồi, trần thạch cao, hệ thống chiếu sáng đèn trang trí, thiết bị vệ sinh Inax cao cấp.",4 tầng,3.5,2.5 m,Hà Nội,Hà Đông,Phường Phú Lãm,Phố Xốm,35.0,2720.0,20.9419709,105.7567848
623,06/12/2022,S,2.0,2.0,Sổ đỏ/ Sổ hồng,Đầy đủ,2 tầng,30.0,64 m,Hà Nội,Cầu Giấy,Phường Nghĩa Tân,Đường Hoàng Quốc Việt,640.0,258000.0,21.0460863,105.7926597
624,06/12/2022,nan,6.0,4.0,Sổ đỏ/ Sổ hồng,Đầy đủ,5 tầng,nan,5 m,Hà Nội,Thanh Xuân,Phường Khương Đình,Đường Khương Đình,44.0,4250.0,20.9899395,105.8238236
626,01/12/2022,W,3.0,4.0,Sổ đỏ/ Sổ hồng,Cơ bản.,5 tầng,3.3,2 m,Hà Nội.,Nam Từ Liêm,Phường Tây Mỗ,Đường Miêu Nha,32.0,2800.0,,
625,05/12/2022,nan,5.0,4.0,Sổ đỏ/ Sổ hồng,nan,5 tầng,nan,nan,Hà Nội,Đống Đa,Phường Ô Chợ Dừa,Đường Ô Chợ Dừa,51.0,7500.0,21.02392085,105.82280000684547
627,05/12/2022,W,3.0,2.0,Sổ đỏ/ Sổ hồng,nan,3 tầng,3.3,2.6 m,Hà Nội,Hà Đông,Phường Văn Quán,Đường Tô Hiệu,41.0,4500.0,,
628,06/12/2022,nan,8.0,8.0,Sổ đỏ/ Sổ hồng.,nan,8 tầng,nan,nan,Hà Nội.,Đống Đa,Phường Phương Mai,Đường Đông Tác,60.0,16000.0,,
629,06/12/2022,E,nan,nan,Có sổ.,nan,3 tầng,nan,nan,Hà Nội,Bắc Từ Liêm,Phường Cổ Nhuế 1,234 Đường Phạm Văn Đồng,169.6,45000.0,21.05322765,105.7800186985881
630,06/12/2022,nan,4.0,4.0,Sổ đỏ/ Sổ hồng,Đầy đủ,5 tầng,nan,nan,Hà Nội,Nam Từ Liêm,Phường Mễ Trì,đường Mỹ Đình,42.0,4800.0,21.0195778,105.7807171
631,06/12/2022,W,nan,nan,Hợp đồng mua bán,nan,5 tầng,5.0,33 m,Hà Nội,Hoài Đức,Xã Di Trạch,Đường Quốc lộ 32,90.0,10500.0,,
632,06/12/2022,E,3.0,4.0,Sổ đỏ/ Sổ hồng.,Đầy đủ.,5 tầng,nan,nan,Hà Nội,Long Biên,Phường Phúc Lợi,Đường Phúc Lợi,30.0,2600.0,21.038209,105.930126
633,03/12/2022,nan,10.0,7.0,nan,nan,6 tầng,5.15,3 m,Hà Nội.,Cầu Giấy,Phường Trung Hòa,Đường Trần Duy Hưng,57.0,9500.0,21.0091282,105.797841
635,06/12/2022,nan,4.0,nan,Sổ đỏ/ Sổ hồng.,"Hiện đại, đầy đủ tiện nghi.",4 tầng,4.6,nan,Hà Nội,Tây Hồ,Phường Bưởi,Đường Võng Thị,62.0,7000.0,,
634,06/12/2022,nan,nan,nan,Sổ đỏ/ Sổ hồng,Đầy đủ,5 tầng,nan,3.5 m,Hà Nội,Ba Đình,Phường Phúc Xá,Đường Tân Ấp,43.0,4500.0,21.0452019,105.8455084
636,06/12/2022,W,4.0,3.0,Sổ đỏ/ Sổ hồng,Nội thất cơ bản đầy đủ,4 tầng,3.8,3 m,Hà Nội,Hà Đông,Phường Yên Nghĩa,Đường Tố Hữu,36.0,2100.0,,
638,02/12/2022,W,3.0,3.0,Sổ đỏ/ Sổ hồng,Nội thất cơ bản đầy đủ,4 tầng,3.5,4 m,Hà Nội,Hà Đông,Phường Yên Nghĩa,Đường Tố Hữu,38.0,2950.0,,
639,06/12/2022,nan,3.0,4.0,Sổ đỏ/ Sổ hồng,nan,5 tầng,nan,nan,Hà Nội,Tây Hồ,Phường Phú Thượng,Đường Phú Thượng,36.0,3500.0,21.0880325,105.8086275
640,06/12/2022,W,5.0,4.0,Hợp đồng mua bán,Full nội thất xịn.,5 tầng,5.0,14 m,Hà Nội,Hoàng Mai,Phường Đại Kim,Đường Nghiêm Xuân Yêm,75.0,21500.0,20.9720171,105.8200502
637,06/12/2022,nan,3.0,3.0,Sổ đỏ/ Sổ hồng,nan,5 tầng,nan,nan,Hà Nội,Hà Đông,Phường Phú Lãm,Ngõ 1 Hà Trì 4 Đường Quang Lãm,34.0,3550.0,,
641,01/12/2022,nan,3.0,3.0,Sổ đỏ/ Sổ hồng,Nội thất cơ bản đầy đủ.,3 tầng,4.0,3 m,Hà Nội,Quốc Oai,Xã Đại Thành,Đường 421B,42.0,1950.0,,
643,06/12/2022,nan,nan,nan,nan,nan,6 tầng,nan,nan,Hà Nội,Cầu Giấy,Phường Trung Hòa,Phố Trung Kính,145.0,50000.0,21.0167474,105.7939251
642,05/12/2022,nan,nan,nan,Sổ đỏ/ Sổ hồng,nan,5 tầng,5.5,nan,Hà Nội,Hai Bà Trưng,Phường Lê Đại Hành,Phố Bà Triệu,60.0,24800.0,21.0132473,105.8491407
644,06/12/2022,nan,4.0,4.0,Sổ đỏ,Đầy đủ,4 tầng,4.0,3 m,Hà Nội,Ba Đình,Phường Ngọc Hà,Đường Ngọc Hà,33.0,4900.0,21.0306261,105.8024741
645,06/12/2022,W,3.0,3.0,Sổ đỏ/ Sổ hồng,nan,3 tầng,7.8,3 m,Hà Nội,Cầu Giấy,Phường Yên Hòa,Đường Hoa Bằng,28.0,2950.0,,
647,06/12/2022,nan,4.0,4.0,Sổ đỏ/ Sổ hồng,Đầy đủ,4 tầng,4.0,3.2 m,Hà Nội,Thanh Xuân,Phường Khương Đình,Đường Bùi Xương Trạch,38.0,4600.0,,
646,06/12/2022,nan,nan,nan,nan,nan,7 tầng,6.0,nan,Hà Nội,Hai Bà Trưng,Phường Đồng Tâm,Phố Trần Đại Nghĩa,80.0,27000.0,20.9939649,105.8439776
648,06/12/2022,nan,nan,nan,nan,nan,4 tầng,nan,nan,Hà Nội,Hai Bà Trưng,Phường Đồng Tâm,nan,60.0,10500.0,20.9988653,105.8445167
649,28/11/2022,nan,6.0,5.0,Sổ đỏ/ Sổ hồng,Đầy đủ,5 tầng,nan,nan,Hà Nội,Cầu Giấy,Phường Mai Dịch,Phố Doãn Kế Thiện,45.0,5600.0,21.0423584,105.7744301
650,30/11/2022,nan,11.0,11.0,Sổ đỏ/ Sổ hồng.,Đầy đủ.,6 tầng,6.0,nan,Hà Nội,Cầu Giấy,Phường Yên Hòa,Đường Cầu Giấy,55.0,8500.0,21.0309417,105.7962286
651,06/12/2022,nan,5.0,3.0,nan,nan,4 tầng,nan,nan,Hà Nội,Hai Bà Trưng,Phường Đồng Tâm,Phố Yên Lạc,45.0,6500.0,,
652,28/11/2022,nan,4.0,4.0,Sổ đỏ/ Sổ hồng,nan,6 tầng,4.0,nan,Hà Nội,Cầu Giấy,Phường Trung Hòa,Phố Nguyễn Ngọc Vũ,45.0,6500.0,21.011443900000003,105.80841380000001
653,06/12/2022,nan,6.0,6.0,Sổ đỏ chính chủ,Nội thất cao cấp.,5 tầng,8.0,30 m,Hà Nội,Hai Bà Trưng,Phường Bách Khoa,Phố Lê Thanh Nghị,108.0,39000.0,21.0033703,105.8497361
655,01/12/2022,N,3.0,3.0,Sổ chính chủ.,nan,5 tầng,4.0,7 m,Hà Nội,Long Biên,Phường Ngọc Lâm,Đường Ngọc Lâm,50.0,9950.0,21.04552255,105.86823883267425
656,03/12/2022,nan,4.0,3.0,Sổ đỏ/ Sổ hồng,nan,5 tầng,nan,nan,Hà Nội,Hà Đông,Phường Yên Nghĩa,Đường Yên Nghĩa,32.0,2550.0,20.9521818,105.7381143
654,02/12/2022,nan,4.0,5.0,Sổ đỏ/ Sổ hồng,nan,6 tầng,5.0,nan,Hà Nội,Đống Đa,Phường Láng Hạ,Phố Láng Hạ,55.0,10500.0,21.0122912,105.8122233
657,06/12/2022,nan,20.0,20.0,Sổ đỏ/ Sổ hồng,Đầy đủ,6 tầng,5.1,nan,Hà Nội,Hai Bà Trưng,Phường Bách Khoa,Phố Lê Thanh Nghị,160.0,23900.0,21.0033703,105.8497361
658,06/12/2022,nan,3.0,4.0,nan,nan,5 tầng,nan,nan,Hà Nội,Hai Bà Trưng,Phường Vĩnh Tuy,Phố Yên Lạc,45.0,6500.0,21.0002838,105.86352
659,06/12/2022,W,6.0,6.0,Sổ đỏ/ Sổ hồng,nan,5 tầng,4.2,12 m,Hà Nội,Hà Đông,Phường La Khê,Đường Lê Trọng Tấn,50.0,9000.0,20.9670155,105.7564787
660,06/12/2022,nan,5.0,8.0,Sổ đỏ/ Sổ hồng,Cao cấp,8 tầng,6.0,5 m,Hà Nội,Thanh Xuân,Phường Khương Mai,Đường Hoàng Văn Thái,50.0,9900.0,,
661,01/12/2022,E,nan,nan,Sổ đỏ/ Sổ hồng,Bàn giao thô,5 tầng,6.0,7 m,Hà Nội,Gia Lâm,Xã Dương Xá,nan,70.8,18000.0,21.0022646,105.9643263
662,01/12/2022,E,nan,nan,Sổ đỏ/ Sổ hồng,Bàn giao thô,3 tầng,10.0,13 m,Hà Nội,Gia Lâm,Xã Dương Xá,nan,150.0,31000.0,21.0022646,105.9643263
663,06/12/2022,nan,4.0,3.0,Sổ đỏ/ Sổ hồng,Đầy đủ,4 tầng,nan,nan,Hà Nội,Nam Từ Liêm,Phường Mỹ Đình 1,Đường Thiên Hiền,42.0,4500.0,,
664,06/12/2022,nan,4.0,3.0,Sổ đỏ/ Sổ hồng,Đầy đủ,4 tầng,nan,nan,Hà Nội,Thanh Xuân,Phường Phương Liệt,Đường Nguyễn Lân,40.0,4450.0,,
665,05/12/2022,E,nan,nan,Sổ đỏ/ Sổ hồng,nan,4 tầng,9.2,13 m,Hà Nội,Gia Lâm,Xã Dương Xá,nan,165.5,30000.0,21.0022646,105.9643263
667,03/12/2022,nan,3.0,3.0,Sổ đỏ,nan,4 tầng,nan,nan,Hà Nội,Hà Đông,Phường Phú Lương,nan,30.0,2350.0,20.9384472,105.7718521451156
666,06/12/2022,nan,3.0,2.0,Sổ đỏ/ Sổ hồng.,nan,2 tầng,4.5,nan,Hà Nội,Sóc Sơn,Xã Quang Tiến,Đường 131,66.0,1700.0,21.2348982,105.8071746
668,06/12/2022,E,5.0,5.0,Sổ đỏ/ Sổ hồng,nan,3 tầng,20.0,4.5 m,Hà Nội,Tây Hồ,Phường Quảng An,Đường Tô Ngọc Vân,295.0,62000.0,21.0682943,105.8232066
669,03/12/2022,nan,4.0,4.0,Sổ đỏ,"Tủ bếp, thiết bị vệ sinh",4 tầng,nan,nan,Hà Nội,Hà Đông,Phường Yên Nghĩa,Đường Yên Nghĩa,34.0,2000.0,20.9521818,105.7381143
670,06/12/2022,E,12.0,12.0,Sổ đỏ/ Sổ hồng,nan,7 tầng,4.0,3 m,Hà Nội,Thanh Xuân,Phường Thanh Xuân Nam,Đường Triều Khúc,43.0,6100.0,,
672,06/12/2022,nan,4.0,5.0,Sổ đỏ/ Sổ hồng.,Nội thất đầy đủ.,4 tầng,nan,nan,Hà Nội,Long Biên,Phường Đức Giang,nan,200.0,32000.0,21.0646143,105.8977054
671,02/12/2022,S,3.0,4.0,Sổ đỏ/ Sổ hồng,Đầy đủ.,5 tầng,3.3,3 m,Hà Nội.,Nam Từ Liêm,Phường Mỹ Đình 2,Đường Lê Đức Thọ,35.0,4500.0,21.0252949,105.7676833
673,06/12/2022,nan,4.0,4.0,Sổ đỏ/ Sổ hồng,nan,5 tầng,nan,nan,Hà Nội,Bắc Từ Liêm,Phường Xuân Đỉnh,Đường Xuân Đỉnh,35.0,3800.0,21.0713312,105.7939692
674,06/12/2022,nan,4.0,3.0,nan,nan,3 tầng,nan,nan,Hà Nội,Tây Hồ,Phường Phú Thượng,Đường Võ Chí Công,140.0,39200.0,21.0764727,105.8116932
675,06/12/2022,nan,nan,nan,Sổ đỏ/ Sổ hồng,Đầy đủ,4 tầng,4.15,3.5 m,Hà Nội,Cầu Giấy,Phường Nghĩa Đô,Đường Võ Chí Công,42.0,4200.0,21.0515792,105.8045612
676,01/12/2022,nan,nan,nan,nan,nan,4 tầng,7.0,nan,Hà Nội,Bắc Từ Liêm,Phường Cổ Nhuế 2,Đường Phạm Văn Đồng,105.0,19000.0,21.0590263,105.7828873
677,02/12/2022,nan,4.0,4.0,Sổ đỏ/ Sổ hồng,nan,7 tầng,4.2,4 m,Hà Nội,Thanh Xuân,Phường Thanh Xuân Trung,Đường Nguyễn Tuân,51.0,18000.0,20.9986947,105.8030395
678,06/12/2022,W,3.0,4.0,Sổ đỏ/ Sổ hồng,Đầy đủ,5 tầng,nan,3 m,Hà Nội,Nam Từ Liêm,Phường Mỹ Đình 2,Đường Mỹ Đình,33.0,4700.0,21.0272998,105.7740252
679,06/12/2022,nan,5.0,5.0,Sổ đỏ/ Sổ hồng,nan,5 tầng,nan,nan,Hà Nội,Thanh Trì,Xã Tân Triều,Đường Nguyễn Xiển,80.0,15000.0,,
680,06/12/2022,nan,4.0,4.0,Sổ đỏ/ Sổ hồng,Đầy đủ,5 tầng,nan,nan,Hà Nội,Nam Từ Liêm,Phường Mỹ Đình 1,Đường Thiên Hiền,48.0,5600.0,,
681,06/12/2022,nan,nan,nan,Sổ đỏ chính chủ.,nan,6 tầng,nan,nan,Hà Nội,Hai Bà Trưng,Phường Quỳnh Lôi,Phố 8/3,83.0,19200.0,21.0027487,105.8582383
682,02/12/2022,nan,4.0,4.0,Sổ đỏ/ Sổ hồng,Đầy đủ,5 tầng,nan,6 m,Hà Nội,Thanh Xuân,Phường Nhân Chính,Đường Khuất Duy Tiến,40.0,6000.0,21.001987,105.7946087
683,29/11/2022,nan,2.0,2.0,Sổ đỏ,nan,3 tầng,nan,nan,Hà Nội,Ba Đình,Phường Quán Thánh,Phố Hàng Bún,23.0,3400.0,21.0418097,105.8450824
684,03/12/2022,nan,2.0,3.0,Sổ đỏ/ Sổ hồng,nan,4 tầng,3.3,nan,Hà Nội,Đống Đa,Phường Cát Linh,Phố An Trạch,20.5,2550.0,21.0270849,105.8280412
685,06/12/2022,nan,4.0,nan,Sổ đỏ/ Sổ hồng,Cơ bản,4 tầng,3.6,4 m,Hà Nội,Thanh Xuân,Phường Thượng Đình,Phố Cự Lộc,50.0,8000.0,21.0027459,105.8134875
686,04/12/2022,nan,2.0,2.0,Sổ đỏ/ Sổ hồng,nan,2 tầng,5.0,nan,Hà Nội,Hai Bà Trưng,Phường Minh Khai,Đường Minh Khai,80.0,12900.0,20.9957496,105.8517179
687,15/11/2022,nan,6.0,6.0,Sổ đỏ/ Sổ hồng,Bàn giao thô bên trong hoàn thiện mặt ngoài,5 tầng,7.0,60 m,Hà Nội,Hà Đông,Phường Kiến Hưng,Đường Phúc La,72.5,9300.0,,
688,23/11/2022,nan,10.0,10.0,Sổ đỏ/ Sổ hồng.,Đầy đủ.,5 tầng,nan,nan,Hà Nội.,Hai Bà Trưng,Phường Vĩnh Tuy,Đường Minh Khai,42.0,6150.0,20.9958286,105.8517382
689,23/11/2022,W,4.0,4.0,Sổ đỏ/ Sổ hồng,Đầy đủ,5 tầng,4.0,2.5 m,Hà Nội,Cầu Giấy,Phường Mai Dịch,Đường Hồ Tùng Mậu,35.0,4100.0,21.0382232,105.7719404
690,23/11/2022,W,4.0,4.0,nan,nan,5 tầng,4.0,2.5 m,Hà Nội,Nam Từ Liêm,Phường Phú Đô,Đường Phú Đô,36.0,3400.0,21.0116265,105.7698275
691,24/11/2022,W,4.0,4.0,nan,nan,5 tầng,4.0,2.5 m,Hà Nội,Nam Từ Liêm,Phường Phú Đô,Đường Phú Đô,36.0,3400.0,21.0116265,105.7698275
692,27/11/2022,nan,5.0,4.0,Sổ đỏ/ Sổ hồng,nan,5 tầng,nan,nan,Hà Nội,Cầu Giấy,Phường Nghĩa Đô,Đường Duy Tân,60.0,16500.0,,
693,29/11/2022,nan,4.0,4.0,Đang chờ sổ,nan,5 tầng,5.0,nan,Hà Nội,Gia Lâm,Xã Dương Xá,nan,122.8,13500.0,21.0022646,105.9643263
694,06/12/2022,nan,2.0,3.0,Sổ đỏ,nan,4 tầng,3.2,nan,Hà Nội,Hoàng Mai,Phường Vĩnh Hưng,Đường Vĩnh Hưng,30.0,3200.0,20.9879602,105.8708715
695,06/12/2022,E,12.0,12.0,Sổ đỏ,nan,7 tầng,4.3,3 m,Hà Nội,Hà Đông,Phường Văn Quán,Đường Nguyễn Khuyến,37.0,5300.0,,
696,06/12/2022,nan,19.0,19.0,Đã có sổ đỏ,Cao cấp,3 tầng,6.0,50 m,Hà Nội,Hoàn Kiếm,Phường Hàng Bông,Phố Hàng Bông,276.0,72000.0,21.0283222,105.8437768
697,01/12/2022,nan,24.0,24.0,Sổ đỏ/ Sổ hồng,Full nội thất.,7 tầng,9.0,6 m,Hà Nội,Cầu Giấy,Phường Quan Hoa,Đường Cầu Giấy,110.0,22000.0,21.0319877,105.7994621
698,29/11/2022,S,4.0,5.0,Sổ đỏ/ Sổ hồng,Full nội thất,6 tầng,4.5,8 m,Hà Nội,Cầu Giấy,Phường Nghĩa Đô,Đường Hoàng Quốc Việt,50.0,12500.0,21.0461332,105.8019628
699,06/12/2022,E,5.0,5.0,Sổ đỏ/ Sổ hồng.,nan,5 tầng,6.0,11 m,Hà Nội.,Nam Từ Liêm,Phường Đại Mỗ,Đường Sa Đôi,90.0,17000.0,,
700,03/12/2022,W,nan,6.0,Sổ đỏ,nan,6 tầng,4.5,5 m,Hà Nội,Ba Đình,Phường Vĩnh Phúc,Đường Vĩnh Phúc,76.0,26000.0,21.0460074,105.8110403
